~Version ---------------------------------------------------
VERS.   2.0 : CWLS log ASCII Standard -VERSION 2.0
WRAP.    NO : One line per depth step
DLM . SPACE : Column Data Section Delimiter
~Well ------------------------------------------------------
STRT.F                   0.0 : START DEPTH
STOP.F               15441.0 : STOP DEPTH
STEP.F                   1.0 : STEP
NULL.                -999.25 : NULL VALUE
COMP.                Pioneer : COMPANY
WELL.       MCCLINTIC 12C 3H : WELL
FLD . Spraberry (trend area) : FIELD
LOC .            Midland Co. : LOCATION
STAT.                  Texas : STATE
CTRY.            Midland Co. : COUNTRY
SRVC.    StrataID Technology : SERVICE COMPANY
DATE.    2022-09-16 14:07:04 : DATE
UWI .                    705 : UNIQUE WELL ID
~Curve Information -----------------------------------------
DMEA     .F     : Depth Hole (meas)
ROPA     .F/HR  : Rate of Penetration (avg)
GASA     .%     : Gas (avg)
METH     .PPM   : Methane (C1)
ETH      .PPM   : Ethane (C2)
PRP      .PPM   : Propane (C3)
IBUT     .PPM   : Iso-Butane (IC4)
NBUT     .PPM   : Nor-Butane (NC4)
IPEN     .PPM   : Iso-Pentane (IC5)
NPEN     .PPM   : Nor-Pentane (NC5)
MG1      .API   : Gamma Ray 1 reading
Anhydrite.----  : N/A
Ash      .----  : N/A
Cement   .----  : N/A
Limestone.----  : N/A
NoSample .----  : N/A
Salt     .----  : N/A
Sand     .----  : N/A
Shale    .----  : N/A
ShaleRed .----  : N/A
~Params ----------------------------------------------------
~Other -----------------------------------------------------
StrataID LAS Version 2.0 export file
~ASCII DMEA ROPA GASA METH ETH PRP IBUT NBUT IPEN NPEN MG1 Anhydrite Ash Cement Limestone NoSample Salt Sand Shale ShaleRed 
# ...
 8224.0 57.2 1123.0 48773.0 9354.0 10624.0 334.0 3009.0 54.0 78.0 91.83 0 0 0 15 0 0 5 80 0
 8225.0 57.3 1113.0 48558.0 9313.5 10576.5 333.0 2995.5 54.0 78.0 94.63 0 0 0 15 0 0 5 80 0
 8228.0 260.2 1153.0 61831.0 9376.0 8428.5 322.5 2248.5 156.0 201.5 109.43 0 0 0 15 0 0 5 80 0
 8229.0 276.5 1184.0 62539.0 9483.0 8525.0 326.5 2274.0 157.5 203.5 104.63 0 0 0 15 0 0 5 80 0
 8230.0 265.4 1181.0 62539.0 9483.0 8525.0 326.5 2274.0 157.5 203.5 99.83 0 0 0 15 0 0 5 80 0
 8231.0 255.4 -999.25 -999.25 -999.25 -999.25 -999.25 -999.25 -999.25 -999.25 98.63 0 0 0 15 0 0 5 80 0
 8232.0 255.4 -999.25 -999.25 -999.25 -999.25 -999.25 -999.25 -999.25 -999.25 97.43 0 0 0 15 0 0 5 80 0
 8234.0 245.7 -999.25 -999.25 -999.25 -999.25 -999.25 -999.25 -999.25 -999.25 89.63 0 0 0 15 0 0 5 80 0
 8235.0 238.2 -999.25 -999.25 -999.25 -999.25 -999.25 -999.25 -999.25 -999.25 80.63 0 0 0 15 0 0 5 80 0
 8239.0 228.5 495.0 26930.0 3165.0 3299.0 0.0 609.0 0.0 0.0 98.63 0 0 0 15 0 0 5 80 0
 8240.0 223.4 693.0 40543.0 4765.5 4967.0 0.0 917.5 0.0 0.0 89.63 0 0 0 15 0 0 5 80 0
 8241.0 230.0 731.0 42521.0 4998.0 5210.0 0.0 962.0 0.0 0.0 80.63 0 0 0 15 0 0 5 80 0
 8242.0 232.4 730.0 42876.0 5040.0 5253.0 0.0 970.0 0.0 0.0 86.03 0 0 0 15 0 0 5 80 0
 8243.0 232.4 694.0 39628.0 4658.0 4855.0 0.0 897.0 0.0 0.0 91.43 0 0 0 15 0 0 5 80 0
 8244.0 230.0 674.0 39628.0 4658.0 4855.0 0.0 897.0 0.0 0.0 92.03 0 0 0 15 0 0 5 80 0
 8246.0 254.7 636.0 33237.0 5397.0 5018.0 54.0 1073.0 18.0 32.5 96.23 0 0 0 15 0 0 5 80 0
 8247.0 254.7 610.0 31879.0 5176.0 4813.0 52.0 1029.0 18.0 32.5 110.63 0 0 0 15 0 0 5 80 0
 8249.0 260.6 597.0 31199.0 5066.0 4711.0 51.0 1007.0 18.0 32.5 112.43 0 0 0 15 0 0 5 80 0
 8250.0 275.3 597.0 30677.0 4981.0 4632.0 50.0 990.0 18.0 32.5 113.33 0 0 0 15 0 0 5 80 0
 8251.0 268.9 577.0 30572.0 4964.0 4616.0 50.0 987.0 18.0 32.5 114.23 0 0 0 15 0 0 5 80 0
 8252.0 219.0 620.0 32401.0 5261.0 4892.0 53.0 1046.0 18.0 32.5 99.83 0 0 0 15 0 0 5 80 0
 8253.0 219.0 634.0 28124.0 5459.5 5938.5 140.0 1510.5 20.0 36.0 85.43 0 0 0 15 0 0 5 80 0
 8255.0 231.6 666.0 30131.0 5849.5 6362.0 149.5 1618.5 21.0 39.0 99.83 0 0 0 15 0 0 5 80 0
 8256.0 225.0 693.0 30572.0 5935.0 6455.0 152.0 1642.0 21.0 39.0 101.03 0 0 0 15 0 0 5 80 0
 8257.0 269.2 686.0 30396.0 5901.0 6418.0 151.0 1633.0 21.0 39.0 102.23 0 0 0 15 0 0 5 80 0
 8258.0 269.2 640.0 27484.0 5336.0 5803.0 136.0 1476.0 19.0 35.0 68.62 0 0 0 15 0 0 5 80 0
 8260.0 248.0 567.0 24969.0 4847.0 5272.0 124.0 1341.0 17.0 32.0 81.83 0 0 0 15 0 0 5 80 0
 8262.0 243.8 562.0 24842.0 4631.0 5098.0 148.0 1315.0 16.0 31.0 93.35 0 0 0 15 0 0 5 80 0
 8263.0 243.8 551.0 24394.0 4547.0 5006.0 146.0 1292.0 16.0 31.0 99.11 0 0 0 15 0 0 5 80 0
 8266.0 264.3 781.0 29855.0 5565.0 6127.0 178.0 1581.0 19.0 38.0 108.23 0 0 0 15 0 0 5 80 0
 8267.0 265.9 781.0 29855.0 5565.0 6127.0 178.0 1581.0 19.0 38.0 105.83 0 0 0 15 0 0 5 80 0
 8268.0 285.1 1010.0 40530.0 7556.0 8318.0 242.5 2146.5 26.5 51.0 103.43 0 0 0 15 0 0 5 80 0
 8269.0 258.0 972.0 44805.0 8353.0 9195.0 268.0 2373.0 29.0 57.0 99.59 0 0 0 15 0 0 5 80 0
 8270.0 258.0 957.0 42136.0 8245.0 8771.0 181.0 2127.0 0.0 4.0 95.75 0 0 0 15 0 0 5 80 0
 8271.0 225.1 918.0 44178.0 8236.0 9067.0 264.0 2340.0 29.0 56.0 91.91 0 0 0 15 0 0 5 80 0
 8272.0 229.6 939.0 41822.0 8184.0 8705.0 180.0 2112.0 0.0 4.0 88.07 0 0 0 15 0 0 5 80 0
 8273.0 224.0 966.0 43209.0 8455.0 8994.0 186.0 2182.0 152.5 4.0 84.23 0 0 0 15 0 0 5 80 0
 8275.0 245.3 1048.0 46832.0 9164.0 9748.0 201.0 2365.0 152.5 4.0 89.93 0 0 0 15 0 0 5 80 0
 8277.0 251.3 1007.0 45490.0 8902.0 9469.0 196.0 2297.0 152.5 4.0 95.63 0 0 0 15 0 0 5 80 0
 8278.0 251.3 989.0 42267.0 9265.5 8980.0 423.0 2298.5 152.5 200.5 98.48 0 0 0 15 0 0 5 80 0
 8279.0 265.5 969.0 42056.0 9219.0 8935.0 421.0 2287.0 152.0 200.0 101.33 0 0 0 15 0 0 5 80 0
 8280.0 266.9 1006.0 44077.0 9662.0 9364.5 441.5 2396.5 149.0 197.0 104.18 0 0 0 15 0 0 5 80 0
 8282.0 269.5 1162.0 49171.0 10779.0 10447.0 492.0 2674.0 177.0 234.0 108.71 0 0 0 15 0 0 5 80 0
 8283.0 260.7 1170.0 49171.0 10779.0 10447.0 492.0 2674.0 177.0 234.0 110.39 0 0 0 15 0 0 5 80 0
 8286.0 263.2 1172.0 44609.0 9776.0 9656.0 401.0 2390.0 97.5 148.5 115.43 0 0 0 15 0 0 5 80 0
 8287.0 243.6 1131.0 47745.5 10463.0 10334.5 428.5 2558.0 104.0 158.5 91.43 0 0 0 15 0 0 5 80 0
 8288.0 242.8 1119.0 47302.0 10366.0 10239.0 425.0 2534.0 103.0 157.0 67.42 0 0 0 15 0 0 5 80 0
 8290.0 236.8 1055.0 44575.0 9768.5 9648.5 400.0 2388.0 97.0 148.0 101.03 0 0 0 15 0 0 5 80 0
 8291.0 230.9 1025.0 43328.0 9495.0 9379.0 389.0 2321.0 95.0 144.0 86.03 0 0 0 15 0 0 5 80 0
 8292.0 208.3 1012.0 41632.0 9330.0 9349.0 417.0 2362.0 150.0 196.0 71.02 0 0 0 15 0 0 5 80 0
 8295.0 209.0 951.0 39123.0 8768.0 8785.0 392.0 2219.0 141.0 185.0 103.43 0 0 0 15 0 0 5 80 0
 8296.0 245.4 901.0 37066.0 8307.0 8323.0 371.0 2103.0 134.0 175.0 101.03 0 0 0 15 0 0 5 80 0
 8297.0 226.9 838.0 33816.0 7578.0 7594.0 339.0 1918.0 122.0 160.0 98.63 0 0 0 15 0 0 5 80 0
 8298.0 231.8 810.0 32396.5 7260.5 7274.5 324.5 1837.5 117.0 153.0 96.23 0 0 0 15 0 0 5 80 0
 8300.0 214.0 871.0 38355.0 8659.0 8777.0 548.0 2244.0 165.0 221.0 101.03 0 0 0 15 0 0 5 80 0
 8301.0 183.2 846.0 34119.0 7702.0 7807.0 487.0 1996.0 146.0 196.0 69.82 0 0 0 15 0 0 5 80 0
 8302.0 183.2 745.0 30046.0 6783.0 6875.0 429.0 1757.0 129.0 173.0 38.62 0 0 0 15 0 0 5 80 0
 8303.0 148.1 761.0 29925.0 6755.0 6847.0 427.0 1750.0 128.0 172.0 45.22 0 0 0 15 0 0 5 80 0
 8306.0 169.0 686.0 28441.0 6106.0 6304.0 315.0 1539.5 45.0 76.0 102.23 0 0 0 15 0 0 5 80 0
 8307.0 169.0 668.0 28315.0 6079.0 6276.0 314.0 1533.0 45.0 76.0 90.23 0 0 0 15 0 0 5 80 0
 8308.0 188.2 651.0 27684.0 5943.0 6136.0 307.0 1499.0 44.0 74.0 78.23 0 0 0 15 0 0 5 80 0
 8309.0 195.9 633.0 26506.0 5690.0 5875.0 294.0 1435.0 42.0 71.0 84.23 0 0 0 15 0 0 5 80 0
 8310.0 179.6 597.0 26632.0 5717.0 5903.0 295.0 1442.0 42.0 71.0 90.23 0 0 0 15 0 0 5 80 0
 8311.0 179.6 557.0 24724.0 4985.0 5365.0 173.0 1364.0 21.0 49.0 81.23 0 0 0 15 0 0 5 80 0
 8313.0 196.8 579.0 24702.5 4981.0 5360.0 173.5 1363.5 21.0 49.0 92.03 0 0 0 15 0 0 5 80 0
 8315.0 205.1 624.0 28348.5 5716.0 6151.5 199.0 1564.5 24.0 56.0 97.43 0 0 0 15 0 0 5 80 0
 8317.0 47.6 1393.0 61720.0 13179.0 14140.0 494.0 3639.0 24.0 108.0 84.23 0 0 0 15 0 0 5 80 0
 8318.0 46.6 1563.0 89655.0 12925.0 10917.0 369.0 2578.0 37.0 112.0 85.43 0 0 0 15 0 0 5 80 0
 8320.0 48.3 -999.25 -999.25 -999.25 -999.25 -999.25 -999.25 -999.25 -999.25 97.43 0 0 0 15 0 0 5 80 0
 8321.0 48.2 372.0 17577.0 3450.0 2454.0 96.0 505.0 29.0 40.0 86.63 0 0 0 15 0 0 5 80 0
 8323.0 247.7 312.0 15849.0 3111.0 2213.0 86.0 455.0 26.0 36.0 107.63 0 0 0 15 0 0 5 80 0
 8324.0 281.5 290.0 32440.0 3801.0 3114.0 49.0 699.0 0.0 0.0 123.84 0 0 0 15 0 0 5 80 0
 8326.0 278.8 400.0 20129.0 2358.0 1932.0 30.0 433.0 0.0 0.0 86.63 0 0 0 15 0 0 5 80 0
 8327.0 276.5 623.0 36480.0 4274.0 3501.0 55.0 786.0 0.0 0.0 96.23 0 0 0 15 0 0 5 80 0
 8328.0 277.2 682.0 42117.0 4934.0 4042.0 63.0 907.0 0.0 0.0 105.83 0 0 0 15 0 0 5 80 0
 8330.0 286.0 674.0 42550.0 4985.0 4084.0 64.0 916.0 0.0 0.0 125.04 0 0 0 15 0 0 5 80 0
 8331.0 252.2 701.0 42550.0 4985.0 4084.0 64.0 916.0 0.0 0.0 105.23 0 0 0 15 0 0 5 80 0
 8334.0 241.9 656.0 42376.0 4785.0 3758.0 195.0 594.0 19.0 53.0 99.83 0 0 0 15 0 0 5 80 0
 8335.0 241.9 644.0 41407.0 4675.0 3672.0 195.0 580.0 19.0 53.0 100.23 0 0 0 15 0 0 5 80 0
 8338.0 280.2 795.0 52518.0 5930.0 4657.0 195.0 736.0 19.0 53.0 92.63 0 0 0 15 0 0 5 80 0
 8339.0 256.6 821.0 53035.0 5988.0 4703.0 195.0 744.0 19.0 53.0 84.23 0 0 0 15 0 0 5 80 0
 8340.0 255.0 811.0 52518.0 5930.0 4657.0 195.0 736.0 19.0 53.0 127.44 0 0 0 15 0 0 5 80 0
 8342.0 273.8 794.0 36306.0 7299.0 7029.0 194.0 1714.0 19.0 53.0 115.43 0 0 0 15 0 0 5 80 0
 8343.0 273.8 810.0 36351.0 7308.0 7038.0 195.0 1716.0 19.0 53.0 106.43 0 0 0 15 0 0 5 80 0
 8344.0 259.5 808.0 37191.0 7477.0 7201.0 199.0 1756.0 20.0 54.5 97.43 0 0 0 15 0 0 5 80 0
 8347.0 249.0 771.0 34990.0 7034.0 6775.0 187.0 1652.0 19.0 51.0 99.43 0 0 0 15 0 0 5 80 0
 8350.0 272.2 905.0 38899.0 8283.0 8510.0 257.0 2005.0 30.0 59.0 103.43 0 0 0 15 0 0 5 80 0
