~Version ---------------------------------------------------
VERS.   2.0 : CWLS log ASCII Standard -VERSION 2.0
WRAP.    NO : One line per depth step
DLM . SPACE : Column Data Section Delimiter
~Well ------------------------------------------------------
STRT.F                   0.0 : START DEPTH
STOP.F               15441.0 : STOP DEPTH
STEP.F                   1.0 : STEP
NULL.                -999.25 : NULL VALUE
COMP.                Pioneer : COMPANY
WELL.       MCCLINTIC 12C 3H : WELL
FLD . Spraberry (trend area) : FIELD
LOC .            Midland Co. : LOCATION
STAT.                  Texas : STATE
CTRY.            Midland Co. : COUNTRY
SRVC.    StrataID Technology : SERVICE COMPANY
DATE.    2022-09-16 14:07:04 : DATE
UWI .                    705 : UNIQUE WELL ID
~Curve Information -----------------------------------------
DMEA     .F     : Depth Hole (meas)
ROPA     .F/HR  : Rate of Penetration (avg)
GASA     .%     : Gas (avg)
METH     .PPM   : Methane (C1)
ETH      .PPM   : Ethane (C2)
PRP      .PPM   : Propane (C3)
IBUT     .PPM   : Iso-Butane (IC4)
NBUT     .PPM   : Nor-Butane (NC4)
IPEN     .PPM   : Iso-Pentane (IC5)
NPEN     .PPM   : Nor-Pentane (NC5)
MG1      .API   : Gamma Ray 1 reading
Anhydrite.----  : N/A
Ash      .----  : N/A
Cement   .----  : N/A
Limestone.----  : N/A
NoSample .----  : N/A
Salt     .----  : N/A
Sand     .----  : N/A
Shale    .----  : N/A
ShaleRed .----  : N/A
~Params ----------------------------------------------------
~Other -----------------------------------------------------
StrataID LAS Version 2.0 export file
~ASCII DMEA ROPA GASA METH ETH PRP IBUT NBUT IPEN NPEN MG1 Anhydrite Ash Cement Limestone NoSample Salt Sand Shale ShaleRed 
# ...
 14211.0 150.3 -999.25 -999.25 -999.25 -999.25 -999.25 -999.25 -999.25 -999.25 62.02 0 0 0 55 0 0 0 45 0
 14213.0 149.7 -999.25 -999.25 -999.25 -999.25 -999.25 -999.25 -999.25 -999.25 60.8 0 0 0 55 0 0 0 45 0
 14214.0 150.9 -999.25 -999.25 -999.25 -999.25 -999.25 -999.25 -999.25 -999.25 60.19 0 0 0 55 0 0 0 45 0
 14216.0 150.2 -999.25 -999.25 -999.25 -999.25 -999.25 -999.25 -999.25 -999.25 58.97 0 0 0 55 0 0 0 45 0
 14217.0 150.2 -999.25 -999.25 -999.25 -999.25 -999.25 -999.25 -999.25 -999.25 58.36 0 0 0 55 0 0 0 45 0
 14218.0 150.8 -999.25 -999.25 -999.25 -999.25 -999.25 -999.25 -999.25 -999.25 59.03 0 0 0 55 0 0 0 45 0
 14219.0 146.8 -999.25 -999.25 -999.25 -999.25 -999.25 -999.25 -999.25 -999.25 59.7 0 0 0 55 0 0 0 45 0
 14221.0 145.2 -999.25 -999.25 -999.25 -999.25 -999.25 -999.25 -999.25 -999.25 58.36 0 0 0 55 0 0 0 45 0
 14222.0 144.3 -999.25 -999.25 -999.25 -999.25 -999.25 -999.25 -999.25 -999.25 57.83 0 0 0 55 0 0 0 45 0
 14224.0 146.9 -999.25 -999.25 -999.25 -999.25 -999.25 -999.25 -999.25 -999.25 56.5 0 0 0 55 0 0 0 45 0
 14225.0 148.1 -999.25 -999.25 -999.25 -999.25 -999.25 -999.25 -999.25 -999.25 56.5 0 0 0 55 0 0 0 45 0
 14227.0 155.1 -999.25 -999.25 -999.25 -999.25 -999.25 -999.25 -999.25 -999.25 55.03 0 0 0 55 0 0 0 45 0
 14228.0 160.1 -999.25 -999.25 -999.25 -999.25 -999.25 -999.25 -999.25 -999.25 53.57 0 0 0 55 0 0 0 45 0
 14229.0 164.7 -999.25 -999.25 -999.25 -999.25 -999.25 -999.25 -999.25 -999.25 55.7 0 0 0 55 0 0 0 45 0
 14230.0 173.9 -999.25 -999.25 -999.25 -999.25 -999.25 -999.25 -999.25 -999.25 60.5 0 0 0 55 0 0 0 45 0
 14231.0 173.9 -999.25 -999.25 -999.25 -999.25 -999.25 -999.25 -999.25 -999.25 58.9 0 0 0 55 0 0 0 45 0
 14232.0 170.6 -999.25 -999.25 -999.25 -999.25 -999.25 -999.25 -999.25 -999.25 57.3 0 0 0 55 0 0 0 45 0
 14233.0 170.6 -999.25 -999.25 -999.25 -999.25 -999.25 -999.25 -999.25 -999.25 56.41 0 0 0 55 0 0 0 45 0
 14234.0 160.0 -999.25 -999.25 -999.25 -999.25 -999.25 -999.25 -999.25 -999.25 55.52 0 0 0 55 0 0 0 45 0
 14238.0 171.3 -999.25 -999.25 -999.25 -999.25 -999.25 -999.25 -999.25 -999.25 54.9 0 0 0 55 0 0 0 45 0
 14239.0 189.8 -999.25 -999.25 -999.25 -999.25 -999.25 -999.25 -999.25 -999.25 58.9 0 0 0 55 0 0 0 45 0
 14240.0 192.5 -999.25 -999.25 -999.25 -999.25 -999.25 -999.25 -999.25 -999.25 62.89 0 0 0 55 0 0 0 45 0
 14241.0 189.9 -999.25 -999.25 -999.25 -999.25 -999.25 -999.25 -999.25 -999.25 64.49 0 0 0 55 0 0 0 45 0
 14242.0 185.8 -999.25 -999.25 -999.25 -999.25 -999.25 -999.25 -999.25 -999.25 64.23 0 0 0 55 0 0 0 45 0
 14244.0 192.7 -999.25 -999.25 -999.25 -999.25 -999.25 -999.25 -999.25 -999.25 64.23 0 0 0 55 0 0 0 45 0
 14245.0 192.3 -999.25 -999.25 -999.25 -999.25 -999.25 -999.25 -999.25 -999.25 60.76 0 0 0 55 0 0 0 45 0
 14246.0 188.7 -999.25 -999.25 -999.25 -999.25 -999.25 -999.25 -999.25 -999.25 57.3 0 0 0 55 0 0 0 45 0
 14247.0 187.6 -999.25 -999.25 -999.25 -999.25 -999.25 -999.25 -999.25 -999.25 57.96 0 0 0 55 0 0 0 45 0
 14248.0 184.9 -999.25 -999.25 -999.25 -999.25 -999.25 -999.25 -999.25 -999.25 58.63 0 0 0 55 0 0 0 45 0
 14249.0 177.0 -999.25 -999.25 -999.25 -999.25 -999.25 -999.25 -999.25 -999.25 57.03 0 0 0 55 0 0 0 45 0
 14250.0 177.7 -999.25 -999.25 -999.25 -999.25 -999.25 -999.25 -999.25 -999.25 55.43 0 0 0 55 0 0 0 45 0
 14252.0 186.3 -999.25 -999.25 -999.25 -999.25 -999.25 -999.25 -999.25 -999.25 55.03 0 0 0 55 0 0 0 45 0
 14253.0 183.0 -999.25 -999.25 -999.25 -999.25 -999.25 -999.25 -999.25 -999.25 55.7 0 0 0 55 0 0 0 45 0
 14255.0 179.9 -999.25 -999.25 -999.25 -999.25 -999.25 -999.25 -999.25 -999.25 58.1 0 0 0 55 0 0 0 45 0
 14258.0 41.0 -999.25 -999.25 -999.25 -999.25 -999.25 -999.25 -999.25 -999.25 57.3 0 0 0 55 0 0 0 45 0
 14259.0 41.5 -999.25 -999.25 -999.25 -999.25 -999.25 -999.25 -999.25 -999.25 54.63 0 0 0 55 0 0 0 45 0
 14261.0 204.8 -999.25 -999.25 -999.25 -999.25 -999.25 -999.25 -999.25 -999.25 57.03 0 0 0 55 0 0 0 45 0
 14263.0 205.9 -999.25 -999.25 -999.25 -999.25 -999.25 -999.25 -999.25 -999.25 57.16 0 0 0 55 0 0 0 45 0
 14264.0 205.9 -999.25 -999.25 -999.25 -999.25 -999.25 -999.25 -999.25 -999.25 57.23 0 0 0 55 0 0 0 45 0
 14265.0 196.5 -999.25 -999.25 -999.25 -999.25 -999.25 -999.25 -999.25 -999.25 57.3 0 0 0 55 0 0 0 45 0
 14266.0 193.7 -999.25 -999.25 -999.25 -999.25 -999.25 -999.25 -999.25 -999.25 56.9 0 0 0 55 0 0 0 45 0
 14267.0 193.7 -999.25 -999.25 -999.25 -999.25 -999.25 -999.25 -999.25 -999.25 56.5 0 0 0 55 0 0 0 45 0
 14268.0 191.2 -999.25 -999.25 -999.25 -999.25 -999.25 -999.25 -999.25 -999.25 56.76 0 0 0 55 0 0 0 45 0
 14269.0 197.8 -999.25 -999.25 -999.25 -999.25 -999.25 -999.25 -999.25 -999.25 57.03 0 0 0 55 0 0 0 45 0
 14271.0 200.1 -999.25 -999.25 -999.25 -999.25 -999.25 -999.25 -999.25 -999.25 54.9 0 0 0 55 0 0 0 45 0
 14272.0 200.1 -999.25 -999.25 -999.25 -999.25 -999.25 -999.25 -999.25 -999.25 53.03 0 0 0 55 0 0 0 45 0
 14273.0 200.1 -999.25 -999.25 -999.25 -999.25 -999.25 -999.25 -999.25 -999.25 54.63 0 0 0 55 0 0 0 45 0
 14274.0 199.3 -999.25 -999.25 -999.25 -999.25 -999.25 -999.25 -999.25 -999.25 54.77 0 0 0 55 0 0 0 45 0
 14276.0 202.4 -999.25 -999.25 -999.25 -999.25 -999.25 -999.25 -999.25 -999.25 55.7 0 0 0 55 0 0 0 45 0
 14277.0 200.9 -999.25 -999.25 -999.25 -999.25 -999.25 -999.25 -999.25 -999.25 53.03 0 0 0 55 0 0 0 45 0
 14278.0 199.3 -999.25 -999.25 -999.25 -999.25 -999.25 -999.25 -999.25 -999.25 55.3 0 0 0 55 0 0 0 45 0
 14279.0 199.3 -999.25 -999.25 -999.25 -999.25 -999.25 -999.25 -999.25 -999.25 57.56 0 0 0 55 0 0 0 45 0
 14280.0 196.0 -999.25 -999.25 -999.25 -999.25 -999.25 -999.25 -999.25 -999.25 53.83 0 0 0 55 0 0 0 45 0
 14281.0 192.6 -999.25 -999.25 -999.25 -999.25 -999.25 -999.25 -999.25 -999.25 57.03 0 0 0 55 0 0 0 45 0
 14282.0 192.6 -999.25 -999.25 -999.25 -999.25 -999.25 -999.25 -999.25 -999.25 55.7 0 0 0 55 0 0 0 45 0
 14283.0 192.2 -999.25 -999.25 -999.25 -999.25 -999.25 -999.25 -999.25 -999.25 55.97 0 0 0 55 0 0 0 45 0
 14284.0 192.6 -999.25 -999.25 -999.25 -999.25 -999.25 -999.25 -999.25 -999.25 56.23 0 0 0 55 0 0 0 45 0
 14285.0 190.4 -999.25 -999.25 -999.25 -999.25 -999.25 -999.25 -999.25 -999.25 56.76 0 0 0 55 0 0 0 45 0
 14286.0 189.7 -999.25 -999.25 -999.25 -999.25 -999.25 -999.25 -999.25 -999.25 53.57 0 0 0 55 0 0 0 45 0
 14287.0 190.1 -999.25 -999.25 -999.25 -999.25 -999.25 -999.25 -999.25 -999.25 57.03 0 0 0 55 0 0 0 45 0
 14288.0 192.6 -999.25 -999.25 -999.25 -999.25 -999.25 -999.25 -999.25 -999.25 52.5 0 0 0 55 0 0 0 45 0
 14289.0 192.6 -999.25 -999.25 -999.25 -999.25 -999.25 -999.25 -999.25 -999.25 55.7 0 0 0 55 0 0 0 45 0
 14292.0 198.9 -999.25 -999.25 -999.25 -999.25 -999.25 -999.25 -999.25 -999.25 61.3 0 0 0 55 0 0 0 45 0
 14294.0 196.6 -999.25 -999.25 -999.25 -999.25 -999.25 -999.25 -999.25 -999.25 57.56 0 0 0 55 0 0 0 45 0
 14295.0 196.0 -999.25 -999.25 -999.25 -999.25 -999.25 -999.25 -999.25 -999.25 57.3 0 0 0 55 0 0 0 45 0
 14296.0 196.0 -999.25 -999.25 -999.25 -999.25 -999.25 -999.25 -999.25 -999.25 58.36 0 0 0 55 0 0 0 45 0
 14297.0 186.4 -999.25 -999.25 -999.25 -999.25 -999.25 -999.25 -999.25 -999.25 57.3 0 0 0 55 0 0 0 45 0
 14298.0 188.4 -999.25 -999.25 -999.25 -999.25 -999.25 -999.25 -999.25 -999.25 63.16 0 0 0 55 0 0 0 45 0
 14300.0 188.1 -999.25 -999.25 -999.25 -999.25 -999.25 -999.25 -999.25 -999.25 58.36 0 0 0 50 0 0 0 50 0
 14302.0 200.1 -999.25 -999.25 -999.25 -999.25 -999.25 -999.25 -999.25 -999.25 61.83 0 0 0 50 0 0 0 50 0
 14303.0 195.9 -999.25 -999.25 -999.25 -999.25 -999.25 -999.25 -999.25 -999.25 60.23 0 0 0 50 0 0 0 50 0
 14304.0 192.8 -999.25 -999.25 -999.25 -999.25 -999.25 -999.25 -999.25 -999.25 57.83 0 0 0 50 0 0 0 50 0
 14305.0 188.1 -999.25 -999.25 -999.25 -999.25 -999.25 -999.25 -999.25 -999.25 55.17 0 0 0 50 0 0 0 50 0
 14306.0 188.1 -999.25 -999.25 -999.25 -999.25 -999.25 -999.25 -999.25 -999.25 56.1 0 0 0 50 0 0 0 50 0
 14307.0 187.5 -999.25 -999.25 -999.25 -999.25 -999.25 -999.25 -999.25 -999.25 57.03 0 0 0 50 0 0 0 50 0
 14308.0 187.5 -999.25 -999.25 -999.25 -999.25 -999.25 -999.25 -999.25 -999.25 63.69 0 0 0 50 0 0 0 50 0
 14309.0 194.4 -999.25 -999.25 -999.25 -999.25 -999.25 -999.25 -999.25 -999.25 62.09 0 0 0 50 0 0 0 50 0
