~Version ---------------------------------------------------
VERS.   2.0 : CWLS log ASCII Standard -VERSION 2.0
WRAP.    NO : One line per depth step
DLM . SPACE : Column Data Section Delimiter
~Well ------------------------------------------------------
STRT.F                   0.0 : START DEPTH
STOP.F               15441.0 : STOP DEPTH
STEP.F                   1.0 : STEP
NULL.                -999.25 : NULL VALUE
COMP.                Pioneer : COMPANY
WELL.       MCCLINTIC 12C 3H : WELL
FLD . Spraberry (trend area) : FIELD
LOC .            Midland Co. : LOCATION
STAT.                  Texas : STATE
CTRY.            Midland Co. : COUNTRY
SRVC.    StrataID Technology : SERVICE COMPANY
DATE.    2022-09-16 14:07:04 : DATE
UWI .                    705 : UNIQUE WELL ID
~Curve Information -----------------------------------------
DMEA     .F     : Depth Hole (meas)
ROPA     .F/HR  : Rate of Penetration (avg)
GASA     .%     : Gas (avg)
METH     .PPM   : Methane (C1)
ETH      .PPM   : Ethane (C2)
PRP      .PPM   : Propane (C3)
IBUT     .PPM   : Iso-Butane (IC4)
NBUT     .PPM   : Nor-Butane (NC4)
IPEN     .PPM   : Iso-Pentane (IC5)
NPEN     .PPM   : Nor-Pentane (NC5)
MG1      .API   : Gamma Ray 1 reading
Anhydrite.----  : N/A
Ash      .----  : N/A
Cement   .----  : N/A
Limestone.----  : N/A
NoSample .----  : N/A
Salt     .----  : N/A
Sand     .----  : N/A
Shale    .----  : N/A
ShaleRed .----  : N/A
~Params ----------------------------------------------------
~Other -----------------------------------------------------
StrataID LAS Version 2.0 export file
~ASCII DMEA ROPA GASA METH ETH PRP IBUT NBUT IPEN NPEN MG1 Anhydrite Ash Cement Limestone NoSample Salt Sand Shale ShaleRed 
# ...
 6407.0 381.5 284.0 7823.0 1727.0 2767.0 170.0 644.0 75.0 56.0 100.66 0 0 0 20 0 0 0 80 0
 6408.0 381.5 168.0 5592.0 1235.0 1978.0 121.0 460.0 53.0 40.0 105.12 0 0 0 20 0 0 0 80 0
 6410.0 372.6 129.0 4294.0 948.0 1519.0 93.0 353.0 41.0 31.0 106.62 0 0 0 20 0 0 0 80 0
 6413.0 374.0 877.0 38650.0 8536.0 13673.0 842.0 3182.0 371.0 279.0 110.63 0 0 0 20 0 0 0 80 0
 6414.0 374.0 1969.0 65548.0 14477.0 23189.0 1429.0 5397.0 630.0 473.0 115.43 0 0 0 20 0 0 0 80 0
 6415.0 371.8 2212.0 73638.0 16264.0 26051.0 1605.0 6063.0 708.0 531.0 115.37 0 0 0 20 0 0 0 80 0
 6417.0 376.2 2430.0 73638.0 16264.0 26051.0 1605.0 6063.0 708.0 531.0 115.43 0 0 0 20 0 0 0 80 0
 6419.0 70.2 2772.0 72237.0 4469.0 33245.0 2833.0 16562.0 0.0 0.0 110.51 0 0 0 20 0 0 0 80 0
 6420.0 68.9 208.0 6485.0 1239.0 2495.0 194.0 684.0 92.0 74.0 112.91 0 0 0 20 0 0 0 80 0
 6421.0 68.9 218.0 9993.5 1909.5 3845.0 298.5 1053.5 142.0 114.0 115.43 0 0 0 20 0 0 0 80 0
 6424.0 331.4 1008.0 30900.0 5904.5 11890.0 924.5 3259.0 441.0 353.5 126.7 0 0 0 20 0 0 0 80 0
 6426.0 354.7 1086.0 32241.0 6161.0 12406.0 964.5 3400.0 461.0 369.0 115.91 0 0 0 20 0 0 0 80 0
 6429.0 354.1 713.0 27751.0 5303.0 10678.0 830.0 2927.0 396.0 318.0 117.77 0 0 0 20 0 0 0 80 0
 6431.0 354.3 599.0 18156.0 1403.0 6733.0 1136.0 3547.0 0.0 0.0 109.13 0 0 0 20 0 0 0 80 0
 6435.0 363.0 931.0 20005.0 1546.0 7419.0 1251.0 3909.0 0.0 0.0 114.23 0 0 0 20 0 0 0 80 0
 6436.0 363.0 1038.0 32039.0 2476.0 11882.0 2004.0 6260.0 0.0 0.0 113.03 0 0 0 20 0 0 0 80 0
 6438.0 356.0 1076.0 27553.0 2129.0 10218.0 1724.0 5383.0 0.0 0.0 102.72 0 0 0 20 0 0 0 80 0
 6443.0 358.5 1333.0 56780.0 7423.0 15218.0 612.0 4042.0 18.0 208.5 118.61 0 0 0 20 0 0 0 80 0
 6444.0 358.5 1314.0 55486.0 7254.0 14871.0 598.0 3950.0 18.0 208.5 118.91 0 0 0 20 0 0 0 80 0
 6446.0 367.8 1286.0 54902.0 7178.0 14715.0 592.0 3908.0 18.0 208.5 112.11 0 0 0 20 0 0 0 80 0
 6448.0 362.5 1298.0 55528.0 7260.0 14882.0 599.0 3953.0 18.0 208.5 95.52 0 0 0 20 0 0 0 80 0
 6449.0 362.5 1286.0 54609.0 7139.0 14636.0 589.0 3887.0 18.0 208.5 96.12 0 0 0 20 0 0 0 80 0
 6450.0 363.1 1310.0 55642.5 8576.0 14992.0 798.0 3548.0 298.0 208.5 96.72 0 0 0 20 0 0 0 80 0
 6452.0 350.1 1502.0 54672.0 8427.0 14731.0 784.0 3486.0 293.0 205.0 117.71 0 0 0 20 0 0 0 80 0
 6458.0 378.7 1335.0 55077.0 8489.0 14840.0 790.0 3512.0 295.0 206.0 106.94 0 0 0 20 0 0 0 80 0
 6459.0 378.7 1432.0 54915.0 8464.0 14796.0 787.0 3501.0 294.0 206.0 105.16 0 0 0 20 0 0 0 80 0
 6460.0 364.9 1414.0 56653.0 8732.0 15264.0 812.0 3612.0 304.0 212.0 103.38 0 0 0 20 0 0 0 80 0
 6462.0 358.6 1440.0 55077.0 8489.0 14840.0 790.0 3512.0 295.0 206.0 99.83 0 0 0 20 0 0 0 80 0
 6463.0 358.6 1455.0 58359.0 9896.0 15258.0 930.0 3769.0 335.0 218.0 103.13 0 0 0 20 0 0 0 80 0
 6466.0 362.3 1366.0 55511.0 9413.0 14514.0 885.0 3585.0 319.0 207.0 113.03 0 0 0 20 0 0 0 80 0
 6468.0 373.8 1321.0 54067.0 9168.0 14136.0 862.0 3492.0 310.0 202.0 113.39 0 0 0 20 0 0 0 80 0
 6469.0 366.4 1275.0 52102.0 8835.0 13622.5 830.5 3365.5 299.0 194.5 113.57 0 0 0 20 0 0 0 80 0
 6470.0 366.4 1310.0 52262.0 8862.0 13664.0 833.0 3376.0 300.0 195.0 113.75 0 0 0 20 0 0 0 80 0
 6472.0 369.2 1343.0 53265.0 9032.0 13927.0 849.0 3440.0 306.0 199.0 114.11 0 0 0 20 0 0 0 80 0
 6473.0 361.8 1380.0 54428.5 9229.5 14231.0 867.5 3515.5 312.0 203.5 120.24 0 0 0 20 0 0 0 80 0
 6476.0 371.1 1462.0 62420.0 9669.0 16202.5 1007.0 4019.0 383.5 260.5 113.51 0 0 0 20 0 0 0 80 0
 6479.0 368.4 1573.0 63801.0 9883.0 16561.0 1029.0 4108.0 392.0 266.0 118.91 0 0 0 20 0 0 0 80 0
 6483.0 370.5 1574.0 64613.0 10008.5 16771.5 1042.5 4160.5 397.0 270.0 119.87 0 0 0 20 0 0 0 80 0
 6484.0 370.5 1550.0 64451.0 9983.0 16729.0 1040.0 4150.0 396.0 269.0 117.84 0 0 0 20 0 0 0 80 0
 6487.0 352.7 1590.0 63368.0 10290.0 17051.0 1128.0 4589.0 508.0 336.0 113.44 0 0 0 20 0 0 0 80 0
 6488.0 352.7 1586.0 61258.0 9947.0 16483.0 1091.0 4436.0 491.0 325.0 111.98 0 0 0 20 0 0 0 80 0
 6489.0 340.2 1528.0 59597.5 9678.0 16036.5 1061.0 4316.0 477.5 316.0 110.51 0 0 0 20 0 0 0 80 0
 6494.0 377.3 1267.0 49850.0 8095.0 13413.5 887.5 3610.0 399.5 264.0 114.71 0 0 0 20 0 0 0 80 0
 6495.0 379.4 1387.0 51764.0 8406.0 13929.0 922.0 3748.0 415.0 274.0 118.91 0 0 0 20 0 0 0 80 0
 6496.0 379.4 1367.0 54568.0 8899.0 14801.0 993.0 3873.0 426.0 285.0 118.91 0 0 0 20 0 0 0 80 0
 6497.0 379.8 1335.0 54685.0 8918.0 14833.0 995.0 3881.0 427.0 285.0 114.11 0 0 0 20 0 0 0 80 0
 6498.0 375.3 1274.0 49981.5 8150.5 13557.0 909.5 3547.0 390.0 260.5 109.31 0 0 0 20 0 0 0 80 0
 6501.0 379.5 1359.0 49377.0 8052.0 13393.0 898.0 3504.0 386.0 258.0 111.2 0 0 0 20 0 0 0 80 0
 6503.0 359.9 1451.0 54139.0 8829.0 14685.0 985.0 3842.0 423.0 282.0 100.32 0 0 0 20 0 0 0 80 0
 6508.0 361.8 1144.0 46241.0 7086.0 11862.0 807.0 3176.0 303.0 188.0 110.63 0 0 0 20 0 0 0 80 0
 6509.0 369.2 1100.0 45029.0 6900.0 11551.0 786.0 3093.0 295.0 183.0 110.63 0 0 0 20 0 0 0 80 0
 6510.0 365.8 1119.0 47615.5 7296.5 12214.5 831.5 3270.5 311.5 194.0 111.71 0 0 0 20 0 0 0 80 0
 6513.0 367.7 1297.0 54164.0 8299.5 13894.5 945.5 3720.5 354.5 220.5 124.37 0 0 0 20 0 0 0 80 0
 6514.0 63.8 1147.0 47697.0 7309.0 12235.0 833.0 3276.0 312.0 194.0 123.84 0 0 0 20 0 0 0 80 0
 6517.0 62.6 920.0 45848.0 4842.0 9614.0 0.0 1906.0 0.0 0.0 96.83 0 0 0 20 0 0 0 80 0
 6518.0 62.4 1086.0 60051.0 6342.0 12592.0 0.0 2496.0 0.0 0.0 87.83 0 0 0 20 0 0 0 80 0
 6520.0 370.6 1029.0 51280.0 5415.0 10753.0 0.0 2131.0 0.0 0.0 110.81 0 0 0 20 0 0 0 80 0
 6521.0 370.6 965.0 47094.0 4973.0 9875.0 0.0 1957.0 0.0 0.0 132.7 0 0 0 20 0 0 0 80 0
 6525.0 372.4 700.0 38924.0 3991.0 8086.0 0.0 1508.0 0.0 0.0 105.12 0 0 0 20 0 0 0 80 0
 6526.0 372.4 693.0 37462.0 3841.0 7782.0 0.0 1451.0 0.0 0.0 104.27 0 0 0 20 0 0 0 80 0
 6528.0 367.2 848.0 37462.0 3841.0 7782.0 0.0 1451.0 0.0 0.0 112.91 0 0 0 20 0 0 0 80 0
 6529.0 367.2 846.0 44118.0 4523.0 9165.0 276.0 1709.0 2.5 0.0 115.35 0 0 0 20 0 0 0 80 0
 6532.0 367.8 992.0 52135.0 5345.0 10831.0 276.0 2020.0 2.5 0.0 120.71 0 0 0 20 0 0 0 80 0
 6534.0 382.4 1152.0 56824.0 5826.0 11805.0 276.0 2201.0 2.5 0.0 114.83 0 0 0 20 0 0 0 80 0
 6535.0 376.1 1138.0 30421.0 4015.0 6796.0 199.0 1490.0 2.0 0.0 110.63 0 0 0 20 0 0 0 80 0
 6536.0 376.1 1176.0 54206.0 7153.5 12109.0 354.0 2654.5 3.0 0.0 111.23 0 0 0 20 0 0 0 80 0
 6539.0 372.4 1291.0 55458.0 7319.0 12389.0 362.0 2716.0 3.0 0.0 113.03 0 0 0 20 0 0 0 80 0
 6541.0 362.5 1413.0 61416.5 8105.5 13720.0 401.0 3008.0 4.0 0.0 72.74 0 0 0 20 0 0 0 80 0
 6542.0 361.9 1415.0 65196.0 8604.0 14564.0 426.0 3193.0 4.0 0.0 74.62 0 0 0 20 0 0 0 80 0
 6544.0 350.7 1523.0 67468.0 8904.0 15072.0 441.0 3304.0 4.0 0.0 101.37 0 0 0 20 0 0 0 80 0
 6545.0 356.6 1676.0 72939.0 9626.0 16294.0 477.0 3572.0 4.0 0.0 117.4 0 0 0 20 0 0 0 80 0
 6548.0 372.4 2027.0 82863.0 10936.0 18511.0 542.0 4058.0 5.0 0.0 131.5 0 0 0 20 0 0 0 80 0
 6549.0 372.4 2012.0 48680.0 7691.0 12271.0 594.0 2994.0 169.0 104.0 152.48 0 0 0 20 0 0 0 80 0
 6554.0 376.2 1880.0 80039.0 12645.0 20175.0 976.0 4922.0 277.0 170.0 127.92 0 0 0 20 0 0 0 80 0
 6555.0 365.2 1928.0 79788.0 12605.0 20112.0 973.0 4907.0 276.0 170.0 126.48 0 0 0 20 0 0 0 80 0
 6556.0 365.2 1884.0 80707.0 12751.0 20344.0 984.0 4963.0 280.0 172.0 125.04 0 0 0 20 0 0 0 80 0
 6557.0 368.5 1820.0 80498.0 12718.0 20291.0 982.0 4950.0 279.0 171.0 125.04 0 0 0 20 0 0 0 80 0
 6558.0 368.5 1750.0 80498.0 12718.0 20291.0 982.0 4950.0 279.0 171.0 125.04 0 0 0 20 0 0 0 80 0
 6563.0 382.4 1751.0 61760.0 13261.0 19734.0 1160.0 4905.0 480.0 369.0 122.98 0 0 0 20 0 0 0 80 0
 6564.0 378.1 1754.0 62777.0 13479.0 20059.0 1179.0 4986.0 488.0 375.0 122.46 0 0 0 20 0 0 0 80 0
 6565.0 378.1 1777.0 61760.0 13261.0 19734.0 1160.0 4905.0 480.0 369.0 121.95 0 0 0 20 0 0 0 80 0
 6568.0 375.9 1681.0 63865.0 13713.0 20407.0 1199.0 5072.0 497.0 381.0 108.12 0 0 0 20 0 0 0 80 0
 6571.0 375.4 1754.0 60672.0 13027.0 19386.0 1139.0 4818.0 472.0 362.0 103.62 0 0 0 20 0 0 0 80 0
 6572.0 375.4 2001.0 73287.0 14510.0 22380.0 1310.0 5760.0 522.0 430.0 97.32 0 0 0 20 0 0 0 80 0
 6573.0 370.5 1991.0 73287.0 14510.0 22380.0 1310.0 5760.0 522.0 430.0 96.72 0 0 0 20 0 0 0 80 0
