~Version ---------------------------------------------------
VERS.   2.0 : CWLS log ASCII Standard -VERSION 2.0
WRAP.    NO : One line per depth step
DLM . SPACE : Column Data Section Delimiter
~Well ------------------------------------------------------
STRT.F                   0.0 : START DEPTH
STOP.F               15441.0 : STOP DEPTH
STEP.F                   1.0 : STEP
NULL.                -999.25 : NULL VALUE
COMP.                Pioneer : COMPANY
WELL.       MCCLINTIC 12C 3H : WELL
FLD . Spraberry (trend area) : FIELD
LOC .            Midland Co. : LOCATION
STAT.                  Texas : STATE
CTRY.            Midland Co. : COUNTRY
SRVC.    StrataID Technology : SERVICE COMPANY
DATE.    2022-09-16 14:07:04 : DATE
UWI .                    705 : UNIQUE WELL ID
~Curve Information -----------------------------------------
DMEA     .F     : Depth Hole (meas)
ROPA     .F/HR  : Rate of Penetration (avg)
GASA     .%     : Gas (avg)
METH     .PPM   : Methane (C1)
ETH      .PPM   : Ethane (C2)
PRP      .PPM   : Propane (C3)
IBUT     .PPM   : Iso-Butane (IC4)
NBUT     .PPM   : Nor-Butane (NC4)
IPEN     .PPM   : Iso-Pentane (IC5)
NPEN     .PPM   : Nor-Pentane (NC5)
MG1      .API   : Gamma Ray 1 reading
Anhydrite.----  : N/A
Ash      .----  : N/A
Cement   .----  : N/A
Limestone.----  : N/A
NoSample .----  : N/A
Salt     .----  : N/A
Sand     .----  : N/A
Shale    .----  : N/A
ShaleRed .----  : N/A
~Params ----------------------------------------------------
~Other -----------------------------------------------------
StrataID LAS Version 2.0 export file
~ASCII DMEA ROPA GASA METH ETH PRP IBUT NBUT IPEN NPEN MG1 Anhydrite Ash Cement Limestone NoSample Salt Sand Shale ShaleRed 
# ...
 9688.0 156.0 -999.25 -999.25 -999.25 -999.25 -999.25 -999.25 -999.25 -999.25 39.87 0 0 0 90 0 0 0 10 0
 9689.0 152.7 -999.25 -999.25 -999.25 -999.25 -999.25 -999.25 -999.25 -999.25 39.87 0 0 0 90 0 0 0 10 0
 9690.0 152.7 -999.25 -999.25 -999.25 -999.25 -999.25 -999.25 -999.25 -999.25 40.81 0 0 0 90 0 0 0 10 0
 9691.0 149.4 -999.25 -999.25 -999.25 -999.25 -999.25 -999.25 -999.25 -999.25 41.76 0 0 0 90 0 0 0 10 0
 9692.0 152.3 -999.25 -999.25 -999.25 -999.25 -999.25 -999.25 -999.25 -999.25 40.81 0 0 0 90 0 0 0 10 0
 9693.0 152.9 -999.25 -999.25 -999.25 -999.25 -999.25 -999.25 -999.25 -999.25 39.87 0 0 0 90 0 0 0 10 0
 9694.0 150.4 -999.25 -999.25 -999.25 -999.25 -999.25 -999.25 -999.25 -999.25 39.87 0 0 0 90 0 0 0 10 0
 9695.0 153.5 -999.25 -999.25 -999.25 -999.25 -999.25 -999.25 -999.25 -999.25 41.76 0 0 0 90 0 0 0 10 0
 9696.0 149.9 -999.25 -999.25 -999.25 -999.25 -999.25 -999.25 -999.25 -999.25 42.7 0 0 0 90 0 0 0 10 0
 9697.0 149.6 -999.25 -999.25 -999.25 -999.25 -999.25 -999.25 -999.25 -999.25 43.65 0 0 0 90 0 0 0 10 0
 9698.0 148.5 -999.25 -999.25 -999.25 -999.25 -999.25 -999.25 -999.25 -999.25 43.65 0 0 0 90 0 0 0 10 0
 9699.0 150.7 -999.25 -999.25 -999.25 -999.25 -999.25 -999.25 -999.25 -999.25 43.65 0 0 0 90 0 0 0 10 0
 9700.0 148.3 -999.25 -999.25 -999.25 -999.25 -999.25 -999.25 -999.25 -999.25 43.65 0 0 0 90 0 0 0 10 0
 9701.0 148.3 -999.25 -999.25 -999.25 -999.25 -999.25 -999.25 -999.25 -999.25 44.6 0 0 0 90 0 0 0 10 0
 9702.0 149.4 -999.25 -999.25 -999.25 -999.25 -999.25 -999.25 -999.25 -999.25 45.54 0 0 0 90 0 0 0 10 0
 9703.0 146.7 -999.25 -999.25 -999.25 -999.25 -999.25 -999.25 -999.25 -999.25 44.12 0 0 0 90 0 0 0 10 0
 9704.0 142.4 -999.25 -999.25 -999.25 -999.25 -999.25 -999.25 -999.25 -999.25 42.7 0 0 0 90 0 0 0 10 0
 9705.0 45.0 -999.25 -999.25 -999.25 -999.25 -999.25 -999.25 -999.25 -999.25 40.81 0 0 0 90 0 0 0 10 0
 9706.0 45.6 -999.25 -999.25 -999.25 -999.25 -999.25 -999.25 -999.25 -999.25 45.54 0 0 0 90 0 0 0 10 0
 9708.0 45.9 -999.25 -999.25 -999.25 -999.25 -999.25 -999.25 -999.25 -999.25 43.65 0 0 0 90 0 0 0 10 0
 9709.0 46.9 -999.25 -999.25 -999.25 -999.25 -999.25 -999.25 -999.25 -999.25 41.76 0 0 0 90 0 0 0 10 0
 9710.0 165.8 -999.25 -999.25 -999.25 -999.25 -999.25 -999.25 -999.25 -999.25 42.7 0 0 0 90 0 0 0 10 0
 9711.0 159.9 -999.25 -999.25 -999.25 -999.25 -999.25 -999.25 -999.25 -999.25 39.87 0 0 0 90 0 0 0 10 0
 9715.0 151.3 -999.25 -999.25 -999.25 -999.25 -999.25 -999.25 -999.25 -999.25 42.7 0 0 0 90 0 0 0 10 0
 9716.0 151.3 -999.25 -999.25 -999.25 -999.25 -999.25 -999.25 -999.25 -999.25 43.65 0 0 0 90 0 0 0 10 0
 9717.0 153.0 -999.25 -999.25 -999.25 -999.25 -999.25 -999.25 -999.25 -999.25 43.65 0 0 0 90 0 0 0 10 0
 9718.0 152.7 -999.25 -999.25 -999.25 -999.25 -999.25 -999.25 -999.25 -999.25 43.65 0 0 0 90 0 0 0 10 0
 9719.0 151.6 -999.25 -999.25 -999.25 -999.25 -999.25 -999.25 -999.25 -999.25 43.65 0 0 0 90 0 0 0 10 0
 9720.0 159.2 -999.25 -999.25 -999.25 -999.25 -999.25 -999.25 -999.25 -999.25 46.49 0 0 0 90 0 0 0 10 0
 9721.0 154.5 -999.25 -999.25 -999.25 -999.25 -999.25 -999.25 -999.25 -999.25 45.54 0 0 0 90 0 0 0 10 0
 9723.0 157.2 -999.25 -999.25 -999.25 -999.25 -999.25 -999.25 -999.25 -999.25 45.54 0 0 0 90 0 0 0 10 0
 9724.0 153.4 -999.25 -999.25 -999.25 -999.25 -999.25 -999.25 -999.25 -999.25 45.54 0 0 0 90 0 0 0 10 0
 9725.0 153.4 -999.25 -999.25 -999.25 -999.25 -999.25 -999.25 -999.25 -999.25 42.7 0 0 0 90 0 0 0 10 0
 9726.0 152.4 -999.25 -999.25 -999.25 -999.25 -999.25 -999.25 -999.25 -999.25 42.7 0 0 0 90 0 0 0 10 0
 9727.0 152.8 -999.25 -999.25 -999.25 -999.25 -999.25 -999.25 -999.25 -999.25 42.7 0 0 0 90 0 0 0 10 0
 9728.0 152.8 -999.25 -999.25 -999.25 -999.25 -999.25 -999.25 -999.25 -999.25 44.6 0 0 0 90 0 0 0 10 0
 9730.0 151.5 -999.25 -999.25 -999.25 -999.25 -999.25 -999.25 -999.25 -999.25 40.81 0 0 0 90 0 0 0 10 0
 9731.0 151.5 -999.25 -999.25 -999.25 -999.25 -999.25 -999.25 -999.25 -999.25 43.65 0 0 0 90 0 0 0 10 0
 9734.0 151.9 -999.25 -999.25 -999.25 -999.25 -999.25 -999.25 -999.25 -999.25 42.23 0 0 0 90 0 0 0 10 0
 9735.0 154.2 -999.25 -999.25 -999.25 -999.25 -999.25 -999.25 -999.25 -999.25 43.65 0 0 0 90 0 0 0 10 0
 9736.0 154.2 -999.25 -999.25 -999.25 -999.25 -999.25 -999.25 -999.25 -999.25 39.87 0 0 0 90 0 0 0 10 0
 9737.0 153.5 -999.25 -999.25 -999.25 -999.25 -999.25 -999.25 -999.25 -999.25 37.98 0 0 0 90 0 0 0 10 0
 9738.0 153.5 -999.25 -999.25 -999.25 -999.25 -999.25 -999.25 -999.25 -999.25 37.98 0 0 0 90 0 0 0 10 0
 9741.0 153.4 -999.25 -999.25 -999.25 -999.25 -999.25 -999.25 -999.25 -999.25 39.54 0 0 0 90 0 0 0 10 0
 9742.0 152.8 -999.25 -999.25 -999.25 -999.25 -999.25 -999.25 -999.25 -999.25 40.31 0 0 0 90 0 0 0 10 0
 9744.0 154.0 -999.25 -999.25 -999.25 -999.25 -999.25 -999.25 -999.25 -999.25 41.87 0 0 0 90 0 0 0 10 0
 9746.0 150.8 -999.25 -999.25 -999.25 -999.25 -999.25 -999.25 -999.25 -999.25 43.43 0 0 0 90 0 0 0 10 0
 9747.0 152.2 -999.25 -999.25 -999.25 -999.25 -999.25 -999.25 -999.25 -999.25 44.21 0 0 0 90 0 0 0 10 0
 9748.0 158.2 -999.25 -999.25 -999.25 -999.25 -999.25 -999.25 -999.25 -999.25 44.99 0 0 0 90 0 0 0 10 0
 9750.0 161.1 -999.25 -999.25 -999.25 -999.25 -999.25 -999.25 -999.25 -999.25 44.1 0 0 0 90 0 0 0 10 0
 9753.0 161.1 -999.25 -999.25 -999.25 -999.25 -999.25 -999.25 -999.25 -999.25 44.07 0 0 0 90 0 0 0 10 0
 9754.0 162.9 -999.25 -999.25 -999.25 -999.25 -999.25 -999.25 -999.25 -999.25 44.27 0 0 0 90 0 0 0 10 0
 9755.0 159.3 -999.25 -999.25 -999.25 -999.25 -999.25 -999.25 -999.25 -999.25 44.48 0 0 0 90 0 0 0 10 0
 9756.0 159.3 -999.25 -999.25 -999.25 -999.25 -999.25 -999.25 -999.25 -999.25 41.15 0 0 0 90 0 0 0 10 0
 9757.0 160.2 -999.25 -999.25 -999.25 -999.25 -999.25 -999.25 -999.25 -999.25 42.83 0 0 0 90 0 0 0 10 0
 9758.0 159.3 -999.25 -999.25 -999.25 -999.25 -999.25 -999.25 -999.25 -999.25 42.16 0 0 0 90 0 0 0 10 0
 9759.0 159.3 -999.25 -999.25 -999.25 -999.25 -999.25 -999.25 -999.25 -999.25 41.49 0 0 0 90 0 0 0 10 0
 9760.0 159.3 -999.25 -999.25 -999.25 -999.25 -999.25 -999.25 -999.25 -999.25 42.32 0 0 0 90 0 0 0 10 0
 9761.0 160.6 -999.25 -999.25 -999.25 -999.25 -999.25 -999.25 -999.25 -999.25 41.49 0 0 0 90 0 0 0 10 0
 9762.0 159.0 -999.25 -999.25 -999.25 -999.25 -999.25 -999.25 -999.25 -999.25 44.8 0 0 0 90 0 0 0 10 0
 9763.0 159.0 -999.25 -999.25 -999.25 -999.25 -999.25 -999.25 -999.25 -999.25 44.63 0 0 0 90 0 0 0 10 0
 9764.0 160.8 -999.25 -999.25 -999.25 -999.25 -999.25 -999.25 -999.25 -999.25 44.47 0 0 0 90 0 0 0 10 0
 9766.0 157.6 -999.25 -999.25 -999.25 -999.25 -999.25 -999.25 -999.25 -999.25 44.14 0 0 0 90 0 0 0 10 0
 9767.0 161.4 -999.25 -999.25 -999.25 -999.25 -999.25 -999.25 -999.25 -999.25 43.97 0 0 0 90 0 0 0 10 0
 9768.0 162.5 -999.25 -999.25 -999.25 -999.25 -999.25 -999.25 -999.25 -999.25 47.12 0 0 0 90 0 0 0 10 0
 9769.0 161.9 -999.25 -999.25 -999.25 -999.25 -999.25 -999.25 -999.25 -999.25 45.62 0 0 0 90 0 0 0 10 0
 9770.0 166.0 -999.25 -999.25 -999.25 -999.25 -999.25 -999.25 -999.25 -999.25 44.13 0 0 0 90 0 0 0 10 0
 9771.0 162.3 -999.25 -999.25 -999.25 -999.25 -999.25 -999.25 -999.25 -999.25 41.99 0 0 0 90 0 0 0 10 0
 9773.0 160.5 -999.25 -999.25 -999.25 -999.25 -999.25 -999.25 -999.25 -999.25 40.32 0 0 0 90 0 0 0 10 0
 9775.0 157.2 -999.25 -999.25 -999.25 -999.25 -999.25 -999.25 -999.25 -999.25 40.67 0 0 0 90 0 0 0 10 0
 9776.0 157.2 -999.25 -999.25 -999.25 -999.25 -999.25 -999.25 -999.25 -999.25 43.49 0 0 0 90 0 0 0 10 0
 9777.0 152.0 -999.25 -999.25 -999.25 -999.25 -999.25 -999.25 -999.25 -999.25 44.89 0 0 0 90 0 0 0 10 0
 9778.0 152.6 -999.25 -999.25 -999.25 -999.25 -999.25 -999.25 -999.25 -999.25 46.29 0 0 0 90 0 0 0 10 0
 9779.0 154.2 -999.25 -999.25 -999.25 -999.25 -999.25 -999.25 -999.25 -999.25 41.15 0 0 0 90 0 0 0 10 0
 9780.0 154.9 -999.25 -999.25 -999.25 -999.25 -999.25 -999.25 -999.25 -999.25 42.07 0 0 0 90 0 0 0 10 0
 9781.0 153.7 -999.25 -999.25 -999.25 -999.25 -999.25 -999.25 -999.25 -999.25 42.99 0 0 0 90 0 0 0 10 0
 9782.0 153.7 -999.25 -999.25 -999.25 -999.25 -999.25 -999.25 -999.25 -999.25 43.49 0 0 0 90 0 0 0 10 0
 9784.0 159.8 -999.25 -999.25 -999.25 -999.25 -999.25 -999.25 -999.25 -999.25 42.91 0 0 0 90 0 0 0 10 0
