~Version ---------------------------------------------------
VERS.   2.0 : CWLS log ASCII Standard -VERSION 2.0
WRAP.    NO : One line per depth step
DLM . SPACE : Column Data Section Delimiter
~Well ------------------------------------------------------
STRT.F                   0.0 : START DEPTH
STOP.F               15441.0 : STOP DEPTH
STEP.F                   1.0 : STEP
NULL.                -999.25 : NULL VALUE
COMP.                Pioneer : COMPANY
WELL.       MCCLINTIC 12C 3H : WELL
FLD . Spraberry (trend area) : FIELD
LOC .            Midland Co. : LOCATION
STAT.                  Texas : STATE
CTRY.            Midland Co. : COUNTRY
SRVC.    StrataID Technology : SERVICE COMPANY
DATE.    2022-09-16 14:07:04 : DATE
UWI .                    705 : UNIQUE WELL ID
~Curve Information -----------------------------------------
DMEA     .F     : Depth Hole (meas)
ROPA     .F/HR  : Rate of Penetration (avg)
GASA     .%     : Gas (avg)
METH     .PPM   : Methane (C1)
ETH      .PPM   : Ethane (C2)
PRP      .PPM   : Propane (C3)
IBUT     .PPM   : Iso-Butane (IC4)
NBUT     .PPM   : Nor-Butane (NC4)
IPEN     .PPM   : Iso-Pentane (IC5)
NPEN     .PPM   : Nor-Pentane (NC5)
MG1      .API   : Gamma Ray 1 reading
Anhydrite.----  : N/A
Ash      .----  : N/A
Cement   .----  : N/A
Limestone.----  : N/A
NoSample .----  : N/A
Salt     .----  : N/A
Sand     .----  : N/A
Shale    .----  : N/A
ShaleRed .----  : N/A
~Params ----------------------------------------------------
~Other -----------------------------------------------------
StrataID LAS Version 2.0 export file
~ASCII DMEA ROPA GASA METH ETH PRP IBUT NBUT IPEN NPEN MG1 Anhydrite Ash Cement Limestone NoSample Salt Sand Shale ShaleRed 
 5595.0 25.5 356.0 17982.0 2228.0 3713.0 71.0 658.0 0.0 0.0 63.82 0 0 0 0 0 0 0 0 0
 5596.0 25.5 -999.25 7864.0 660.0 1474.0 0.0 197.0 0.0 0.0 67.42 0 0 0 0 0 0 0 0 0
 5597.0 25.5 -999.25 7864.0 660.0 1474.0 0.0 197.0 0.0 0.0 72.22 0 0 0 0 0 0 0 0 0
 5598.0 25.5 -999.25 7864.0 660.0 1474.0 0.0 197.0 0.0 0.0 83.63 0 0 0 0 0 0 0 0 0
 5599.0 25.5 -999.25 7864.0 660.0 1474.0 0.0 197.0 0.0 0.0 95.03 0 0 0 0 0 0 0 0 0
 5600.0 25.5 -999.25 7864.0 660.0 1474.0 0.0 197.0 0.0 0.0 107.03 0 0 0 0 0 0 0 0 0
 5601.0 25.5 -999.25 7864.0 660.0 1474.0 0.0 197.0 0.0 0.0 104.03 0 0 0 0 0 0 0 0 0
 5602.0 25.5 -999.25 7864.0 660.0 1474.0 0.0 197.0 0.0 0.0 101.03 0 0 0 0 0 0 0 0 0
 5603.0 25.5 -999.25 7864.0 660.0 1474.0 0.0 197.0 0.0 0.0 103.13 0 0 0 0 0 0 0 0 0
 5604.0 25.5 -999.25 7864.0 660.0 1474.0 0.0 197.0 0.0 0.0 105.23 0 0 0 0 0 0 0 0 0
 5605.0 25.5 -999.25 7864.0 660.0 1474.0 0.0 197.0 0.0 0.0 107.33 0 0 0 0 0 0 0 0 0
 5606.0 25.5 -999.25 7864.0 660.0 1474.0 0.0 197.0 0.0 0.0 109.43 0 0 0 0 0 0 0 0 0
 5607.0 25.5 -999.25 7864.0 660.0 1474.0 0.0 197.0 0.0 0.0 106.63 0 0 0 0 0 0 0 0 0
 5608.0 25.5 -999.25 7864.0 660.0 1474.0 0.0 197.0 0.0 0.0 103.83 0 0 0 0 0 0 0 0 0
 5609.0 25.5 -999.25 7864.0 660.0 1474.0 0.0 197.0 0.0 0.0 101.03 0 0 0 0 0 0 0 0 0
 5610.0 25.5 -999.25 7864.0 660.0 1474.0 0.0 197.0 0.0 0.0 97.43 0 0 0 0 0 0 0 0 0
 5611.0 25.5 -999.25 7864.0 660.0 1474.0 0.0 197.0 0.0 0.0 93.83 0 0 0 0 0 0 0 0 0
 5612.0 25.5 -999.25 7864.0 660.0 1474.0 0.0 197.0 0.0 0.0 90.23 0 0 0 0 0 0 0 0 0
 5613.0 25.5 -999.25 7864.0 660.0 1474.0 0.0 197.0 0.0 0.0 86.63 0 0 0 0 0 0 0 0 0
 5614.0 25.5 -999.25 7864.0 660.0 1474.0 0.0 197.0 0.0 0.0 83.03 0 0 0 0 0 0 0 0 0
 5813.0 25.5 228.0 12719.0 1411.0 2656.0 25.0 496.0 0.0 0.0 90.73 0 0 0 0 0 0 0 0 0
 5815.0 25.8 208.0 11278.0 1251.0 2355.0 22.0 439.0 0.0 0.0 81.78 0 0 0 0 0 0 0 0 0
 5816.0 25.9 213.0 12421.0 1378.0 2594.0 25.0 484.0 0.0 0.0 77.03 0 0 0 0 0 0 0 0 0
 5817.0 26.1 229.0 11278.0 1251.0 2355.0 22.0 439.0 0.0 0.0 78.74 0 0 0 0 0 0 0 0 0
 5819.0 305.7 262.0 14616.0 1536.0 2850.0 46.0 543.0 0.0 0.0 98.52 0 0 0 0 0 0 0 0 0
 5820.0 302.4 285.0 15638.0 1643.0 3050.0 49.0 581.0 0.0 0.0 88.33 0 0 0 0 0 0 0 0 0
 5821.0 310.4 315.0 17171.0 1804.0 3349.0 54.0 638.0 0.0 0.0 72.74 0 0 0 0 0 0 0 0 0
 5822.0 309.2 336.0 17171.0 1804.0 3349.0 54.0 638.0 0.0 0.0 69.74 0 0 0 0 0 0 0 0 0
 5823.0 312.2 309.0 15995.0 1681.0 3119.0 50.0 594.0 0.0 0.0 66.75 0 0 0 0 0 0 0 0 0
 5825.0 325.2 282.0 14973.0 1573.0 2920.0 47.0 556.0 0.0 0.0 81.14 0 0 0 0 0 0 0 0 0
 5826.0 303.1 274.0 14743.5 1549.0 2875.0 46.5 548.0 0.0 0.0 68.54 0 0 0 0 0 0 0 0 0
 5827.0 294.7 297.0 15638.0 1643.0 3050.0 49.0 581.0 0.0 0.0 66.22 0 0 0 0 0 0 0 0 0
 5828.0 297.8 313.0 14804.0 1593.5 2900.0 51.5 565.0 0.0 0.0 70.68 0 0 0 0 0 0 0 0 0
 5829.0 290.8 342.0 18311.0 2037.0 3608.0 72.0 724.0 0.0 0.0 75.14 0 0 0 0 0 0 0 0 0
 5830.0 289.8 367.0 18311.0 2037.0 3608.0 72.0 724.0 0.0 0.0 66.75 0 0 0 0 0 0 0 0 0
 5834.0 318.8 369.0 17808.0 1981.0 3509.0 70.0 704.0 0.0 0.0 78.14 0 0 0 0 0 0 0 0 0
 5837.0 326.4 322.0 18286.0 2034.0 3603.0 72.0 723.0 0.0 0.0 66.15 0 0 0 0 0 0 0 0 0
 5838.0 318.0 309.0 13312.0 1596.0 2983.0 91.0 639.0 0.0 0.0 68.62 0 0 0 0 0 0 0 0 0
 5839.0 318.0 316.0 14966.0 1794.0 3353.0 102.0 718.0 0.0 0.0 74.58 0 0 0 0 0 0 0 0 0
 5840.0 322.6 301.0 14966.0 1794.0 3353.0 102.0 718.0 0.0 0.0 80.54 0 0 0 0 0 0 0 0 0
 5843.0 321.9 266.0 13043.0 1563.5 2922.5 88.5 625.5 0.0 0.0 115.43 0 0 0 0 0 0 0 0 0
 5845.0 304.0 253.0 12127.5 1453.5 2717.0 82.5 581.5 0.0 0.0 93.13 0 0 0 0 0 0 0 0 0
 5846.0 297.9 254.0 12127.5 1453.5 2717.0 82.5 581.5 0.0 0.0 75.74 0 0 0 0 0 0 0 0 0
 5849.0 110.2 -999.25 -999.25 -999.25 -999.25 -999.25 -999.25 -999.25 -999.25 98.28 0 0 0 0 0 0 0 0 0
 5851.0 109.9 320.0 16304.5 1739.5 3245.0 55.0 664.0 0.0 0.0 101.52 0 0 0 0 0 0 0 0 0
 5852.0 110.3 304.0 15926.0 1714.0 3183.0 55.0 617.0 0.0 0.0 75.14 0 0 0 0 0 0 0 0 0
 5864.0 393.2 325.0 16127.0 1736.0 3223.0 56.0 625.0 0.0 0.0 100.92 0 0 0 0 0 0 0 0 0
 5865.0 408.1 307.0 15926.0 1714.0 3183.0 55.0 617.0 0.0 0.0 95.52 0 0 0 0 0 0 0 0 0
 5867.0 429.9 -999.25 -999.25 -999.25 -999.25 -999.25 -999.25 -999.25 -999.25 98.52 0 0 0 0 0 0 0 0 0
 5869.0 314.8 91.0 5292.0 607.0 968.0 13.0 182.0 0.0 0.0 105.78 0 0 0 0 0 0 0 0 0
 5871.0 314.8 34.0 2144.0 234.0 425.0 4.0 73.0 0.0 0.0 122.5 0 0 0 0 0 0 0 0 0
 5872.0 314.8 76.0 5565.5 608.5 1104.5 10.5 189.0 0.0 0.0 103.37 0 0 0 0 0 0 0 0 0
 5875.0 292.7 303.0 11336.0 1240.0 2250.0 21.0 386.0 0.0 0.0 75.83 0 0 0 0 0 0 0 0 0
 5876.0 272.9 400.0 17412.0 1905.0 3456.0 33.0 592.0 0.0 0.0 67.35 0 0 0 0 0 0 0 0 0
 5877.0 284.4 381.0 19812.0 2167.0 3933.0 38.0 674.0 0.0 0.0 60.75 0 0 0 0 0 0 0 0 0
 5878.0 266.0 340.0 17514.0 1916.0 3477.0 33.0 596.0 0.0 0.0 63.75 0 0 0 0 0 0 0 0 0
 5879.0 249.9 306.0 2462.0 133.0 361.0 0.0 4.0 0.0 0.0 62.62 0 0 0 0 0 0 0 0 0
 5881.0 257.0 264.0 17048.0 920.0 2499.0 0.0 27.0 0.0 0.0 63.82 0 0 0 0 0 0 0 0 0
 5883.0 265.7 263.0 16854.5 910.5 2471.0 0.0 27.0 0.0 0.0 62.55 0 0 0 0 0 0 0 0 0
 5884.0 282.0 262.0 17884.0 966.0 2622.0 0.0 29.0 0.0 0.0 59.55 0 0 0 0 0 0 0 0 0
 5885.0 271.6 271.0 17884.0 966.0 2622.0 0.0 29.0 0.0 0.0 62.62 0 0 0 0 0 0 0 0 0
 5886.0 281.6 259.0 16983.0 917.0 2490.0 0.0 27.0 0.0 0.0 62.55 0 0 0 0 0 0 0 0 0
 5887.0 275.8 257.0 18302.0 988.0 2683.0 0.0 29.0 0.0 0.0 59.55 0 0 0 0 0 0 0 0 0
 5890.0 292.2 231.0 12361.0 1393.0 2647.0 0.0 401.0 0.0 0.0 68.72 0 0 0 0 0 0 0 0 0
 5895.0 312.2 266.0 14563.0 1641.0 3119.0 0.0 473.0 0.0 0.0 79.64 0 0 0 0 0 0 0 0 0
 5896.0 328.8 285.0 14563.0 1641.0 3119.0 0.0 473.0 0.0 0.0 81.83 0 0 0 0 0 0 0 0 0
 5900.0 299.1 281.0 14212.0 1505.0 2941.0 0.0 488.0 0.0 0.0 83.39 0 0 0 0 0 0 0 0 0
 5902.0 318.9 264.0 14110.0 1494.0 2920.0 0.0 484.0 0.0 0.0 91.33 0 0 0 0 0 0 0 0 0
 5904.0 294.5 261.0 13755.0 1457.0 2846.0 0.0 472.0 0.0 0.0 80.19 0 0 0 0 0 0 0 0 0
 5905.0 294.5 285.0 13577.5 1437.5 2809.5 0.0 466.0 0.0 0.0 74.62 0 0 0 0 0 0 0 0 0
 5907.0 278.3 325.0 15024.0 1591.0 3109.0 0.0 516.0 0.0 0.0 61.35 0 0 0 0 0 0 0 0 0
 5910.0 292.6 382.0 18167.0 1904.0 3722.0 89.0 798.0 0.0 0.0 88.93 0 0 0 0 0 0 0 0 0
 5913.0 296.9 489.0 18167.0 1904.0 3722.0 89.0 798.0 0.0 0.0 78.74 0 0 0 0 0 0 0 0 0
 5915.0 290.8 502.0 26954.0 2825.0 5523.0 132.5 1184.5 0.0 0.0 77.03 0 0 0 0 0 0 0 0 0
 5917.0 281.9 536.0 27235.5 3051.0 5500.0 182.5 1194.0 0.0 0.0 86.23 0 0 0 0 0 0 0 0 0
 5919.0 294.3 525.0 27211.0 3048.0 5495.0 182.0 1193.0 0.0 0.0 92.53 0 0 0 0 0 0 0 0 0
 5922.0 292.1 445.0 26670.0 2987.5 5385.0 178.5 1169.5 0.0 0.0 73.04 0 0 0 0 0 0 0 0 0
 5923.0 296.1 396.0 26079.0 2922.0 5266.0 175.0 1143.0 0.0 0.0 70.34 0 0 0 0 0 0 0 0 0
 5926.0 315.1 285.0 13389.0 1618.0 3013.0 176.0 753.0 2.0 0.0 82.4 0 0 0 0 0 0 0 0 0
 5928.0 305.7 317.0 13616.0 1645.0 3064.0 179.0 766.0 2.0 0.0 78.74 0 0 0 0 0 0 0 0 0
 5929.0 293.1 350.0 17123.0 2069.0 3853.0 225.0 963.0 3.0 0.0 77.24 0 0 0 0 0 0 0 0 0
 5935.0 298.5 386.0 16847.5 1935.5 4212.0 219.5 1040.5 2.0 0.0 79.94 0 0 0 0 0 0 0 0 0
 5939.0 262.7 392.0 17286.0 1986.0 4322.0 225.0 1067.0 0.0 0.0 69.82 0 0 0 0 0 0 0 0 0
 5940.0 270.1 419.0 18383.0 2112.0 4596.0 240.0 1135.0 0.0 0.0 100.92 0 0 0 0 0 0 0 0 0
 5942.0 338.7 417.0 18997.0 2183.0 4749.0 248.0 1173.0 0.0 0.0 84.43 0 0 0 0 0 0 0 0 0
 5943.0 322.6 419.0 19019.0 2185.5 4754.5 248.0 1174.5 0.0 0.0 75.74 0 0 0 0 0 0 0 0 0
 5944.0 71.6 330.0 15374.0 1819.0 3693.0 199.0 901.0 0.0 0.0 72.22 0 0 0 0 0 0 0 0 0
 5949.0 369.1 -999.25 -999.25 -999.25 -999.25 -999.25 -999.25 -999.25 -999.25 88.33 0 0 0 0 0 0 0 0 0
 5950.0 369.1 -999.25 -999.25 -999.25 -999.25 -999.25 -999.25 -999.25 -999.25 80.28 0 0 0 0 0 0 0 0 0
 5951.0 363.4 -999.25 -999.25 -999.25 -999.25 -999.25 -999.25 -999.25 -999.25 72.22 0 0 0 0 0 0 0 0 0
 5952.0 333.3 102.0 4661.0 555.0 1043.0 61.0 262.0 0.0 0.0 69.22 0 0 0 0 0 0 0 0 0
 5954.0 313.1 95.0 4342.0 516.0 972.0 57.0 244.0 0.0 0.0 66.75 0 0 0 0 0 0 0 0 0
 5955.0 316.0 91.0 4159.0 495.0 931.0 55.0 233.0 0.0 0.0 71.54 0 0 0 0 0 0 0 0 0
 5957.0 325.8 181.0 8272.0 985.0 1852.0 109.0 465.0 0.0 0.0 74.54 0 0 0 0 0 0 0 0 0
