~Version ---------------------------------------------------
VERS.   2.0 : CWLS log ASCII Standard -VERSION 2.0
WRAP.    NO : One line per depth step
DLM . SPACE : Column Data Section Delimiter
~Well ------------------------------------------------------
STRT.F                   0.0 : START DEPTH
STOP.F               15441.0 : STOP DEPTH
STEP.F                   1.0 : STEP
NULL.                -999.25 : NULL VALUE
COMP.                Pioneer : COMPANY
WELL.       MCCLINTIC 12C 3H : WELL
FLD . Spraberry (trend area) : FIELD
LOC .            Midland Co. : LOCATION
STAT.                  Texas : STATE
CTRY.            Midland Co. : COUNTRY
SRVC.    StrataID Technology : SERVICE COMPANY
DATE.    2022-09-16 14:07:04 : DATE
UWI .                    705 : UNIQUE WELL ID
~Curve Information -----------------------------------------
DMEA     .F     : Depth Hole (meas)
ROPA     .F/HR  : Rate of Penetration (avg)
GASA     .%     : Gas (avg)
METH     .PPM   : Methane (C1)
ETH      .PPM   : Ethane (C2)
PRP      .PPM   : Propane (C3)
IBUT     .PPM   : Iso-Butane (IC4)
NBUT     .PPM   : Nor-Butane (NC4)
IPEN     .PPM   : Iso-Pentane (IC5)
NPEN     .PPM   : Nor-Pentane (NC5)
MG1      .API   : Gamma Ray 1 reading
Anhydrite.----  : N/A
Ash      .----  : N/A
Cement   .----  : N/A
Limestone.----  : N/A
NoSample .----  : N/A
Salt     .----  : N/A
Sand     .----  : N/A
Shale    .----  : N/A
ShaleRed .----  : N/A
~Params ----------------------------------------------------
~Other -----------------------------------------------------
StrataID LAS Version 2.0 export file
~ASCII DMEA ROPA GASA METH ETH PRP IBUT NBUT IPEN NPEN MG1 Anhydrite Ash Cement Limestone NoSample Salt Sand Shale ShaleRed 
# ...
 7667.0 294.2 1450.0 53730.0 12155.0 13566.0 978.0 3736.0 414.0 445.0 90.23 0 0 0 0 0 0 20 80 0
 7668.0 279.4 1330.0 49224.0 11136.0 12428.0 896.0 3423.0 379.0 408.0 104.03 0 0 0 0 0 0 20 80 0
 7669.0 279.4 1248.0 46346.0 10485.0 11702.0 843.0 3223.0 357.0 384.0 117.84 0 0 0 0 0 0 20 80 0
 7670.0 275.3 1123.0 43279.0 9791.0 10927.0 787.0 3009.0 333.0 358.0 113.03 0 0 0 0 0 0 20 80 0
 7674.0 258.4 1167.0 46116.0 10446.0 11344.0 776.0 2914.0 278.0 300.0 93.83 0 0 0 0 0 0 20 80 0
 7675.0 249.1 -999.25 -999.25 -999.25 -999.25 -999.25 -999.25 -999.25 -999.25 107.03 0 0 0 0 0 0 20 80 0
 7676.0 252.6 -999.25 -999.25 -999.25 -999.25 -999.25 -999.25 -999.25 -999.25 103.43 0 0 0 0 0 0 20 80 0
 7677.0 238.3 -999.25 -999.25 -999.25 -999.25 -999.25 -999.25 -999.25 -999.25 99.83 0 0 0 0 0 0 20 80 0
 7679.0 223.7 -999.25 -999.25 -999.25 -999.25 -999.25 -999.25 -999.25 -999.25 101.63 0 0 0 0 0 0 20 80 0
 7682.0 198.4 -999.25 -999.25 -999.25 -999.25 -999.25 -999.25 -999.25 -999.25 61.42 0 0 0 0 0 0 20 80 0
 7683.0 203.0 -999.25 -999.25 -999.25 -999.25 -999.25 -999.25 -999.25 -999.25 44.62 0 0 0 0 0 0 20 80 0
 7689.0 239.9 -999.25 -999.25 -999.25 -999.25 -999.25 -999.25 -999.25 -999.25 96.23 0 0 0 0 0 0 20 80 0
 7690.0 251.9 -999.25 -999.25 -999.25 -999.25 -999.25 -999.25 -999.25 -999.25 105.83 0 0 0 0 0 0 20 80 0
 7693.0 209.5 -999.25 -999.25 -999.25 -999.25 -999.25 -999.25 -999.25 -999.25 108.92 0 0 0 0 0 0 20 80 0
 7695.0 209.1 706.0 32158.0 5891.0 6508.0 255.0 1690.0 3.0 26.0 110.98 0 0 0 0 0 0 20 80 0
 7696.0 206.5 746.0 33960.0 6221.0 6873.0 269.0 1785.0 3.0 28.0 112 0 0 0 0 0 0 20 80 0
 7698.0 249.0 801.0 37292.0 6831.0 7547.0 295.0 1960.0 3.0 31.0 111.43 0 0 0 0 0 0 20 80 0
 7700.0 247.6 902.0 40386.0 6858.0 7919.0 352.0 1987.0 20.0 34.0 108.23 0 0 0 0 0 0 20 80 0
 7702.0 242.6 920.0 42947.5 7293.0 8421.5 374.5 2113.5 21.0 36.0 117.84 0 0 0 0 0 0 20 80 0
 7703.0 244.1 946.0 43663.0 7415.0 8562.0 381.0 2149.0 21.0 37.0 116.63 0 0 0 0 0 0 20 80 0
 7704.0 242.7 931.0 43478.0 7383.0 8526.0 379.0 2140.0 21.0 37.0 115.43 0 0 0 0 0 0 20 80 0
 7705.0 242.7 911.0 42371.0 7195.0 8308.0 370.0 2085.0 21.0 36.0 114.23 0 0 0 0 0 0 20 80 0
 7711.0 225.2 961.0 42597.0 7881.0 9072.0 448.0 2185.0 113.0 123.0 112.43 0 0 0 0 0 0 20 80 0
 7712.0 225.2 1052.0 45487.0 8415.0 9687.0 478.0 2333.0 121.0 132.0 122.64 0 0 0 0 0 0 20 80 0
 7715.0 220.7 1063.0 43982.0 8613.0 10036.0 541.0 2715.0 152.0 177.0 123.84 0 0 0 0 0 0 20 80 0
 7717.0 230.0 1088.0 45684.0 8946.0 10424.0 562.0 2821.0 158.0 184.0 113.03 0 0 0 0 0 0 20 80 0
 7718.0 230.0 1027.0 42904.0 8401.0 9790.0 528.0 2649.0 148.0 173.0 89.43 0 0 0 0 0 0 20 80 0
 7719.0 187.7 1054.0 44273.0 8669.0 10102.0 545.0 2733.0 153.0 178.0 65.82 0 0 0 0 0 0 20 80 0
 7720.0 187.4 939.0 41949.0 8214.0 9572.0 516.0 2590.0 145.0 169.0 42.22 0 0 0 0 0 0 20 80 0
 7721.0 178.7 902.0 38464.0 7532.0 8776.0 473.0 2375.0 133.0 155.0 67.42 0 0 0 0 0 0 20 80 0
 7722.0 179.8 907.0 36693.0 7367.0 8215.0 527.0 2302.0 212.0 228.0 92.63 0 0 0 0 0 0 20 80 0
 7723.0 191.9 1021.0 41812.0 8394.0 9361.0 601.0 2624.0 242.0 260.0 102.83 0 0 0 0 0 0 20 80 0
 7724.0 196.5 1081.0 44801.0 8995.0 10030.0 644.0 2811.0 259.0 278.0 113.03 0 0 0 0 0 0 20 80 0
 7725.0 185.3 1094.0 44084.5 8850.5 9870.0 633.5 2766.5 254.5 274.0 111.83 0 0 0 0 0 0 20 80 0
 7726.0 185.3 1070.0 43818.0 8797.0 9810.0 630.0 2750.0 253.0 272.0 105.83 0 0 0 0 0 0 20 80 0
 7727.0 190.9 1060.0 46655.0 8575.0 9629.0 587.0 2693.0 133.0 162.0 99.83 0 0 0 0 0 0 20 80 0
 7728.0 193.7 1055.0 45872.0 8431.0 9468.0 577.0 2648.0 131.0 160.0 95.63 0 0 0 0 0 0 20 80 0
 7730.0 191.0 931.0 41394.0 7608.0 8543.0 521.0 2389.0 118.0 144.0 101.03 0 0 0 0 0 0 20 80 0
 7731.0 191.0 979.0 42459.0 7804.0 8763.5 534.0 2450.5 120.5 147.5 110.63 0 0 0 0 0 0 20 80 0
 7732.0 191.7 1016.0 44872.0 8247.0 9261.0 564.0 2590.0 128.0 156.0 107.03 0 0 0 0 0 0 20 80 0
 7733.0 180.9 1095.0 48916.0 8991.0 10096.0 615.0 2823.0 139.0 170.0 103.43 0 0 0 0 0 0 20 80 0
 7734.0 186.6 1218.0 52713.0 10334.5 11097.0 657.5 2942.0 172.5 180.5 98.63 0 0 0 0 0 0 20 80 0
 7736.0 198.0 1361.0 60329.0 11827.0 12700.0 753.0 3367.0 198.0 207.0 89.03 0 0 0 0 0 0 20 80 0
 7737.0 190.1 1400.0 60072.0 11777.0 12646.0 749.0 3353.0 197.0 206.0 109.43 0 0 0 0 0 0 20 80 0
 7738.0 181.4 1132.0 48744.0 9556.0 10261.0 608.0 2720.0 160.0 167.0 106.43 0 0 0 0 0 0 20 80 0
 7742.0 174.1 958.0 42759.0 8532.0 8636.0 495.0 2184.0 139.0 149.0 85.43 0 0 0 0 0 0 20 80 0
 7743.0 174.1 976.0 42671.0 8515.0 8618.0 494.0 2180.0 139.0 149.0 110.63 0 0 0 0 0 0 20 80 0
 7744.0 182.8 937.0 42147.0 8410.0 8512.0 488.0 2153.0 137.0 147.0 104.63 0 0 0 0 0 0 20 80 0
 7745.0 198.5 918.0 40989.5 8179.0 8278.0 475.0 2094.0 133.0 143.0 98.63 0 0 0 0 0 0 20 80 0
 7747.0 33.1 1039.0 46267.5 8585.0 9389.5 491.5 2296.0 102.5 114.0 111.43 0 0 0 0 0 0 20 80 0
 7748.0 33.2 1030.0 46222.5 8577.0 9380.5 491.0 2294.0 102.0 114.0 107.43 0 0 0 0 0 0 20 80 0
 7749.0 33.2 1007.0 44864.0 8325.0 9105.0 477.0 2226.0 99.0 110.0 103.43 0 0 0 0 0 0 20 80 0
 7750.0 33.1 972.0 43305.0 8035.0 8788.0 460.0 2149.0 96.0 106.0 108.23 0 0 0 0 0 0 20 80 0
 7752.0 203.8 1096.0 48254.0 8491.0 9791.0 547.0 2511.0 147.0 161.0 117.84 0 0 0 0 0 0 20 80 0
 7754.0 207.6 1296.0 56890.0 10011.0 11543.0 645.0 2961.0 174.0 190.0 104.23 0 0 0 0 0 0 20 80 0
 7756.0 211.5 1477.0 66683.0 11734.5 13530.0 757.0 3470.5 204.0 223.5 91.43 0 0 0 0 0 0 20 80 0
 7757.0 208.7 1445.0 65080.0 11453.0 13205.0 738.0 3387.0 199.0 218.0 101.63 0 0 0 0 0 0 20 80 0
 7758.0 206.3 1470.0 63975.0 11579.0 12355.0 682.0 3117.0 162.0 177.0 111.83 0 0 0 0 0 0 20 80 0
 7760.0 201.6 1500.0 69325.0 12548.0 13388.0 739.0 3378.0 175.0 192.0 69.22 0 0 0 0 0 0 20 80 0
 7761.0 201.2 1426.0 68600.0 12417.0 13248.0 731.0 3342.0 173.0 190.0 61.42 0 0 0 0 0 0 20 80 0
 7762.0 200.8 -999.25 -999.25 -999.25 -999.25 -999.25 -999.25 -999.25 -999.25 84.83 0 0 0 0 0 0 20 80 0
 7763.0 201.6 -999.25 -999.25 -999.25 -999.25 -999.25 -999.25 -999.25 -999.25 108.23 0 0 0 0 0 0 20 80 0
 7767.0 232.0 -999.25 -999.25 -999.25 -999.25 -999.25 -999.25 -999.25 -999.25 117.03 0 0 0 0 0 0 20 80 0
 7768.0 241.5 -999.25 -999.25 -999.25 -999.25 -999.25 -999.25 -999.25 -999.25 111.43 0 0 0 0 0 0 20 80 0
 7769.0 245.1 -999.25 -999.25 -999.25 -999.25 -999.25 -999.25 -999.25 -999.25 105.83 0 0 0 0 0 0 20 80 0
 7770.0 233.2 -999.25 -999.25 -999.25 -999.25 -999.25 -999.25 -999.25 -999.25 107.03 0 0 0 0 0 0 20 80 0
 7771.0 237.0 -999.25 -999.25 -999.25 -999.25 -999.25 -999.25 -999.25 -999.25 108.23 0 0 0 0 0 0 20 80 0
 7772.0 229.1 -999.25 -999.25 -999.25 -999.25 -999.25 -999.25 -999.25 -999.25 109.43 0 0 0 0 0 0 20 80 0
 7773.0 219.1 -999.25 -999.25 -999.25 -999.25 -999.25 -999.25 -999.25 -999.25 103.43 0 0 0 0 0 0 20 80 0
 7774.0 214.7 -999.25 -999.25 -999.25 -999.25 -999.25 -999.25 -999.25 -999.25 97.43 0 0 0 0 0 0 20 80 0
 7775.0 222.7 -999.25 -999.25 -999.25 -999.25 -999.25 -999.25 -999.25 -999.25 91.43 0 0 0 0 0 0 20 80 0
 7776.0 217.5 -999.25 -999.25 -999.25 -999.25 -999.25 -999.25 -999.25 -999.25 104.63 0 0 0 0 0 0 20 80 0
 7777.0 217.5 -999.25 -999.25 -999.25 -999.25 -999.25 -999.25 -999.25 -999.25 110.63 0 0 0 0 0 0 20 80 0
 7778.0 227.5 -999.25 -999.25 -999.25 -999.25 -999.25 -999.25 -999.25 -999.25 107.63 0 0 0 0 0 0 20 80 0
 7779.0 227.5 -999.25 -999.25 -999.25 -999.25 -999.25 -999.25 -999.25 -999.25 104.63 0 0 0 0 0 0 20 80 0
 7780.0 208.4 -999.25 -999.25 -999.25 -999.25 -999.25 -999.25 -999.25 -999.25 86.63 0 0 0 0 0 0 20 80 0
 7782.0 203.0 -999.25 -999.25 -999.25 -999.25 -999.25 -999.25 -999.25 -999.25 70.62 0 0 0 0 0 0 20 80 0
 7784.0 219.4 -999.25 -999.25 -999.25 -999.25 -999.25 -999.25 -999.25 -999.25 74.62 0 0 0 0 0 0 20 80 0
 7786.0 233.7 -999.25 -999.25 -999.25 -999.25 -999.25 -999.25 -999.25 -999.25 85.63 0 0 0 0 0 0 20 80 0
 7788.0 253.6 -999.25 -999.25 -999.25 -999.25 -999.25 -999.25 -999.25 -999.25 88.43 0 0 0 0 0 0 20 80 0
 7792.0 218.3 -999.25 -999.25 -999.25 -999.25 -999.25 -999.25 -999.25 -999.25 80.23 0 0 0 0 0 0 20 80 0
 7794.0 209.3 -999.25 -999.25 -999.25 -999.25 -999.25 -999.25 -999.25 -999.25 55.42 0 0 0 0 0 0 20 80 0
