~Version ---------------------------------------------------
VERS.   2.0 : CWLS log ASCII Standard -VERSION 2.0
WRAP.    NO : One line per depth step
DLM . SPACE : Column Data Section Delimiter
~Well ------------------------------------------------------
STRT.F                   0.0 : START DEPTH
STOP.F               15441.0 : STOP DEPTH
STEP.F                   1.0 : STEP
NULL.                -999.25 : NULL VALUE
COMP.                Pioneer : COMPANY
WELL.       MCCLINTIC 12C 3H : WELL
FLD . Spraberry (trend area) : FIELD
LOC .            Midland Co. : LOCATION
STAT.                  Texas : STATE
CTRY.            Midland Co. : COUNTRY
SRVC.    StrataID Technology : SERVICE COMPANY
DATE.    2022-09-16 14:07:04 : DATE
UWI .                    705 : UNIQUE WELL ID
~Curve Information -----------------------------------------
DMEA     .F     : Depth Hole (meas)
ROPA     .F/HR  : Rate of Penetration (avg)
GASA     .%     : Gas (avg)
METH     .PPM   : Methane (C1)
ETH      .PPM   : Ethane (C2)
PRP      .PPM   : Propane (C3)
IBUT     .PPM   : Iso-Butane (IC4)
NBUT     .PPM   : Nor-Butane (NC4)
IPEN     .PPM   : Iso-Pentane (IC5)
NPEN     .PPM   : Nor-Pentane (NC5)
MG1      .API   : Gamma Ray 1 reading
Anhydrite.----  : N/A
Ash      .----  : N/A
Cement   .----  : N/A
Limestone.----  : N/A
NoSample .----  : N/A
Salt     .----  : N/A
Sand     .----  : N/A
Shale    .----  : N/A
ShaleRed .----  : N/A
~Params ----------------------------------------------------
~Other -----------------------------------------------------
StrataID LAS Version 2.0 export file
~ASCII DMEA ROPA GASA METH ETH PRP IBUT NBUT IPEN NPEN MG1 Anhydrite Ash Cement Limestone NoSample Salt Sand Shale ShaleRed 
# ...
 7081.0 384.9 -999.25 -999.25 -999.25 -999.25 -999.25 -999.25 -999.25 -999.25 111.83 0 0 0 20 0 0 20 60 0
 7085.0 70.8 -999.25 -999.25 -999.25 -999.25 -999.25 -999.25 -999.25 -999.25 99.17 0 0 0 20 0 0 20 60 0
 7086.0 69.3 -999.25 -999.25 -999.25 -999.25 -999.25 -999.25 -999.25 -999.25 84.23 0 0 0 20 0 0 20 60 0
 7087.0 69.4 -999.25 -999.25 -999.25 -999.25 -999.25 -999.25 -999.25 -999.25 94.63 0 0 0 20 0 0 20 60 0
 7090.0 428.3 -999.25 -999.25 -999.25 -999.25 -999.25 -999.25 -999.25 -999.25 117.11 0 0 0 20 0 0 20 60 0
 7094.0 423.4 -999.25 -999.25 -999.25 -999.25 -999.25 -999.25 -999.25 -999.25 122.64 0 0 0 20 0 0 20 60 0
 7096.0 396.1 -999.25 -999.25 -999.25 -999.25 -999.25 -999.25 -999.25 -999.25 123.84 0 0 0 20 0 0 20 60 0
 7097.0 401.1 -999.25 -999.25 -999.25 -999.25 -999.25 -999.25 -999.25 -999.25 120.11 0 0 0 20 0 0 20 60 0
 7099.0 385.9 -999.25 -999.25 -999.25 -999.25 -999.25 -999.25 -999.25 -999.25 114.71 0 0 0 20 0 0 20 60 0
 7100.0 429.6 -999.25 -999.25 -999.25 -999.25 -999.25 -999.25 -999.25 -999.25 106.32 0 0 0 20 0 0 20 60 0
 7102.0 418.9 -999.25 -999.25 -999.25 -999.25 -999.25 -999.25 -999.25 -999.25 114.8 0 0 0 20 0 0 20 60 0
 7103.0 422.1 -999.25 -999.25 -999.25 -999.25 -999.25 -999.25 -999.25 -999.25 119.04 0 0 0 20 0 0 20 60 0
 7105.0 415.9 -999.25 -999.25 -999.25 -999.25 -999.25 -999.25 -999.25 -999.25 122.64 0 0 0 20 0 0 20 60 0
 7106.0 436.0 -999.25 -999.25 -999.25 -999.25 -999.25 -999.25 -999.25 -999.25 121.44 0 0 0 20 0 0 20 60 0
 7109.0 415.5 -999.25 -999.25 -999.25 -999.25 -999.25 -999.25 -999.25 -999.25 125.84 0 0 0 20 0 0 20 60 0
 7110.0 426.8 -999.25 -999.25 -999.25 -999.25 -999.25 -999.25 -999.25 -999.25 128.64 0 0 0 20 0 0 20 60 0
 7112.0 393.4 -999.25 -999.25 -999.25 -999.25 -999.25 -999.25 -999.25 -999.25 111.03 0 0 0 20 0 0 20 60 0
 7113.0 370.5 -999.25 -999.25 -999.25 -999.25 -999.25 -999.25 -999.25 -999.25 102.23 0 0 0 20 0 0 20 60 0
 7114.0 363.5 -999.25 -999.25 -999.25 -999.25 -999.25 -999.25 -999.25 -999.25 104.03 0 0 0 20 0 0 20 60 0
 7115.0 357.9 -999.25 -999.25 -999.25 -999.25 -999.25 -999.25 -999.25 -999.25 105.83 0 0 0 20 0 0 20 60 0
 7117.0 376.7 -999.25 -999.25 -999.25 -999.25 -999.25 -999.25 -999.25 -999.25 109.43 0 0 0 20 0 0 20 60 0
 7118.0 405.2 -999.25 -999.25 -999.25 -999.25 -999.25 -999.25 -999.25 -999.25 110.63 0 0 0 20 0 0 20 60 0
 7120.0 402.6 -999.25 -999.25 -999.25 -999.25 -999.25 -999.25 -999.25 -999.25 122.64 0 0 0 20 0 0 20 60 0
 7121.0 407.6 -999.25 -999.25 -999.25 -999.25 -999.25 -999.25 -999.25 -999.25 133.44 0 0 0 20 0 0 20 60 0
 7122.0 420.4 -999.25 -999.25 -999.25 -999.25 -999.25 -999.25 -999.25 -999.25 129.84 0 0 0 20 0 0 20 60 0
 7125.0 421.9 -999.25 -999.25 -999.25 -999.25 -999.25 -999.25 -999.25 -999.25 119.03 0 0 0 20 0 0 20 60 0
 7126.0 382.3 -999.25 -999.25 -999.25 -999.25 -999.25 -999.25 -999.25 -999.25 115.43 0 0 0 20 0 0 20 60 0
 7127.0 368.3 -999.25 -999.25 -999.25 -999.25 -999.25 -999.25 -999.25 -999.25 111.83 0 0 0 20 0 0 20 60 0
 7130.0 363.1 -999.25 -999.25 -999.25 -999.25 -999.25 -999.25 -999.25 -999.25 116.23 0 0 0 20 0 0 20 60 0
 7131.0 403.5 -999.25 -999.25 -999.25 -999.25 -999.25 -999.25 -999.25 -999.25 120.24 0 0 0 20 0 0 20 60 0
 7132.0 401.8 -999.25 -999.25 -999.25 -999.25 -999.25 -999.25 -999.25 -999.25 118.41 0 0 0 20 0 0 20 60 0
 7133.0 393.1 -999.25 -999.25 -999.25 -999.25 -999.25 -999.25 -999.25 -999.25 116.59 0 0 0 20 0 0 20 60 0
 7136.0 377.5 -999.25 -999.25 -999.25 -999.25 -999.25 -999.25 -999.25 -999.25 111.13 0 0 0 20 0 0 20 60 0
 7137.0 377.5 -999.25 -999.25 -999.25 -999.25 -999.25 -999.25 -999.25 -999.25 109.31 0 0 0 20 0 0 20 60 0
 7141.0 190.1 -999.25 -999.25 -999.25 -999.25 -999.25 -999.25 -999.25 -999.25 109.31 0 0 0 20 0 0 20 60 0
 7142.0 194.0 -999.25 -999.25 -999.25 -999.25 -999.25 -999.25 -999.25 -999.25 109.01 0 0 0 20 0 0 20 60 0
 7143.0 194.1 -999.25 -999.25 -999.25 -999.25 -999.25 -999.25 -999.25 -999.25 108.72 0 0 0 20 0 0 20 60 0
 7151.0 442.8 -999.25 -999.25 -999.25 -999.25 -999.25 -999.25 -999.25 -999.25 119.24 0 0 0 20 0 0 20 60 0
 7154.0 413.8 -999.25 -999.25 -999.25 -999.25 -999.25 -999.25 -999.25 -999.25 120.24 0 0 0 20 0 0 20 60 0
 7157.0 378.0 -999.25 -999.25 -999.25 -999.25 -999.25 -999.25 -999.25 -999.25 110.63 0 0 0 20 0 0 20 60 0
 7160.0 378.9 -999.25 -999.25 -999.25 -999.25 -999.25 -999.25 -999.25 -999.25 113.27 0 0 0 20 0 0 20 60 0
 7163.0 382.3 -999.25 -999.25 -999.25 -999.25 -999.25 -999.25 -999.25 -999.25 124.9 0 0 0 20 0 0 20 60 0
 7164.0 382.3 -999.25 -999.25 -999.25 -999.25 -999.25 -999.25 -999.25 -999.25 119.35 0 0 0 20 0 0 20 60 0
 7167.0 365.9 -999.25 -999.25 -999.25 -999.25 -999.25 -999.25 -999.25 -999.25 103.98 0 0 0 20 0 0 20 60 0
 7169.0 353.2 -999.25 -999.25 -999.25 -999.25 -999.25 -999.25 -999.25 -999.25 99.83 0 0 0 20 0 0 20 60 0
 7170.0 353.2 -999.25 -999.25 -999.25 -999.25 -999.25 -999.25 -999.25 -999.25 78.14 0 0 0 20 0 0 20 60 0
 7171.0 341.6 -999.25 -999.25 -999.25 -999.25 -999.25 -999.25 -999.25 -999.25 81.83 0 0 0 20 0 0 20 60 0
 7172.0 341.6 -999.25 -999.25 -999.25 -999.25 -999.25 -999.25 -999.25 -999.25 94.43 0 0 0 20 0 0 20 60 0
 7177.0 400.1 -999.25 -999.25 -999.25 -999.25 -999.25 -999.25 -999.25 -999.25 116.95 0 0 0 20 0 0 20 60 0
 7178.0 394.6 -999.25 -999.25 -999.25 -999.25 -999.25 -999.25 -999.25 -999.25 116.79 0 0 0 20 0 0 20 60 0
 7179.0 7.3 114.0 6653.0 307.0 536.0 0.0 30.0 0.0 0.0 116.63 0 0 0 20 0 0 20 60 0
 7181.0 7.3 135.0 12540.0 0.0 253.0 0.0 0.0 0.0 0.0 89.43 0 0 0 20 0 0 20 60 0
 7184.0 7.3 129.0 12635.0 0.0 254.0 0.0 0.0 0.0 0.0 120.24 0 0 0 20 0 0 20 60 0
 7187.0 365.3 115.0 11315.0 0.0 228.0 0.0 0.0 0.0 0.0 121.44 0 0 0 20 0 0 20 60 0
 7188.0 357.0 125.0 10843.0 0.0 218.0 0.0 0.0 0.0 0.0 117.03 0 0 0 20 0 0 20 60 0
 7189.0 337.2 133.0 10843.0 0.0 218.0 0.0 0.0 0.0 0.0 112.63 0 0 0 20 0 0 20 60 0
 7190.0 337.2 155.0 11233.0 201.0 454.0 0.0 0.0 0.0 0.0 108.23 0 0 0 20 0 0 20 60 0
 7192.0 349.3 129.0 11233.0 201.0 454.0 0.0 0.0 0.0 0.0 102.23 0 0 0 20 0 0 20 60 0
 7194.0 361.6 129.0 10843.0 0.0 218.0 0.0 0.0 0.0 0.0 114.23 0 0 0 20 0 0 20 60 0
 7197.0 343.0 158.0 11276.5 201.5 456.0 0.0 703.0 0.0 0.0 120.54 0 0 0 20 0 0 20 60 0
 7199.0 339.8 200.0 14344.0 256.0 580.0 0.0 703.0 0.0 0.0 123.54 0 0 0 20 0 0 20 60 0
 7201.0 348.0 248.0 18807.5 175.0 713.5 0.0 703.0 0.0 0.0 121.04 0 0 0 20 0 0 20 60 0
 7203.0 348.6 288.0 21545.0 200.0 817.0 0.0 703.0 0.0 0.0 113.03 0 0 0 20 0 0 20 60 0
 7205.0 344.8 338.0 30596.0 285.0 1160.5 0.0 703.0 0.0 0.0 114.23 0 0 0 20 0 0 20 60 0
 7206.0 334.9 366.0 27328.5 254.0 1037.0 0.0 703.0 0.0 0.0 116.63 0 0 0 20 0 0 20 60 0
 7211.0 343.5 513.0 43002.0 400.0 1631.0 0.0 703.0 0.0 0.0 116.03 0 0 0 20 0 0 20 60 0
 7212.0 331.5 567.0 43708.0 407.0 1658.0 0.0 703.0 0.0 0.0 114.23 0 0 0 20 0 0 20 60 0
 7213.0 328.1 609.0 33668.0 3585.0 5074.0 0.0 684.0 0.0 0.0 111.23 0 0 0 20 0 0 20 60 0
 7216.0 325.8 567.0 31549.0 3360.0 4755.0 154.5 641.0 6.0 4.0 127.44 0 0 0 20 0 0 20 60 0
 7217.0 323.2 589.0 33381.0 3555.0 5031.0 154.5 678.0 6.0 4.0 124.14 0 0 0 20 0 0 20 60 0
 7218.0 323.2 647.0 36473.0 3884.0 5497.0 154.5 741.0 6.0 4.0 120.84 0 0 0 20 0 0 20 60 0
 7219.0 317.7 644.0 36530.0 3890.0 5505.0 154.5 742.0 6.0 4.0 117.53 0 0 0 20 0 0 20 60 0
 7220.0 317.7 709.0 37218.0 3963.0 5609.0 154.5 756.0 6.0 4.0 114.23 0 0 0 20 0 0 20 60 0
 7222.0 311.5 738.0 35101.5 5475.5 7595.0 156.0 1682.5 6.0 4.0 107.63 0 0 0 20 0 0 20 60 0
 7223.0 334.9 762.0 33627.0 5245.0 7276.0 149.0 1612.0 6.0 4.0 104.33 0 0 0 20 0 0 20 60 0
 7227.0 344.2 938.0 40307.0 6287.0 8722.0 179.0 1932.0 6.0 4.0 103.43 0 0 0 20 0 0 20 60 0
 7228.0 329.5 982.0 41136.0 6417.0 8901.0 183.0 1972.0 6.0 4.0 106.23 0 0 0 20 0 0 20 60 0
 7231.0 325.9 914.0 43486.0 6783.0 9409.0 193.0 2085.0 6.0 4.0 114.63 0 0 0 20 0 0 20 60 0
 7233.0 336.3 1116.0 31011.0 4911.0 6827.0 225.0 1563.0 6.0 4.0 120.24 0 0 0 20 0 0 20 60 0
 7236.0 332.5 1112.0 49289.0 7805.0 10850.0 357.0 2484.0 9.0 6.0 98.63 0 0 0 20 0 0 20 60 0
 7238.0 329.5 1026.0 45894.0 7268.0 10103.0 332.0 2313.0 8.0 5.0 84.23 0 0 0 20 0 0 20 60 0
 7239.0 341.2 989.0 46437.0 7354.0 10223.0 336.0 2340.0 8.0 5.0 77.03 0 0 0 20 0 0 20 60 0
