~Version ---------------------------------------------------
VERS.   2.0 : CWLS log ASCII Standard -VERSION 2.0
WRAP.    NO : One line per depth step
DLM . SPACE : Column Data Section Delimiter
~Well ------------------------------------------------------
STRT.F                   0.0 : START DEPTH
STOP.F               15441.0 : STOP DEPTH
STEP.F                   1.0 : STEP
NULL.                -999.25 : NULL VALUE
COMP.                Pioneer : COMPANY
WELL.       MCCLINTIC 12C 3H : WELL
FLD . Spraberry (trend area) : FIELD
LOC .            Midland Co. : LOCATION
STAT.                  Texas : STATE
CTRY.            Midland Co. : COUNTRY
SRVC.    StrataID Technology : SERVICE COMPANY
DATE.    2022-09-16 14:07:04 : DATE
UWI .                    705 : UNIQUE WELL ID
~Curve Information -----------------------------------------
DMEA     .F     : Depth Hole (meas)
ROPA     .F/HR  : Rate of Penetration (avg)
GASA     .%     : Gas (avg)
METH     .PPM   : Methane (C1)
ETH      .PPM   : Ethane (C2)
PRP      .PPM   : Propane (C3)
IBUT     .PPM   : Iso-Butane (IC4)
NBUT     .PPM   : Nor-Butane (NC4)
IPEN     .PPM   : Iso-Pentane (IC5)
NPEN     .PPM   : Nor-Pentane (NC5)
MG1      .API   : Gamma Ray 1 reading
Anhydrite.----  : N/A
Ash      .----  : N/A
Cement   .----  : N/A
Limestone.----  : N/A
NoSample .----  : N/A
Salt     .----  : N/A
Sand     .----  : N/A
Shale    .----  : N/A
ShaleRed .----  : N/A
~Params ----------------------------------------------------
~Other -----------------------------------------------------
StrataID LAS Version 2.0 export file
~ASCII DMEA ROPA GASA METH ETH PRP IBUT NBUT IPEN NPEN MG1 Anhydrite Ash Cement Limestone NoSample Salt Sand Shale ShaleRed 
# ...
 8727.0 34.8 187.0 11981.0 1062.5 976.5 0.0 39.5 0.0 0.0 54.22 0 0 0 15 0 0 0 85 0
 8728.0 34.8 186.0 11981.0 1062.5 976.5 0.0 39.5 0.0 0.0 41.02 0 0 0 15 0 0 0 85 0
 8729.0 36.1 169.0 11626.0 996.0 971.0 0.0 41.0 0.0 0.0 99.83 0 0 0 15 0 0 0 85 0
 8730.0 37.7 191.0 -999.25 -999.25 -999.25 -999.25 -999.25 -999.25 -999.25 103.43 0 0 0 15 0 0 0 85 0
 8731.0 37.7 210.0 16628.0 1119.5 1193.5 0.0 285.5 0.0 0.0 113.03 0 0 0 15 0 0 0 85 0
 8732.0 38.1 189.0 16628.0 1119.5 1193.5 0.0 285.5 0.0 0.0 119.04 0 0 0 15 0 0 0 85 0
 8733.0 37.3 181.0 10347.0 1199.5 1367.0 0.0 174.5 0.0 0.0 109.43 0 0 0 15 0 0 0 85 0
 8734.0 37.3 140.0 8785.0 1018.0 1161.0 0.0 148.0 0.0 0.0 107.03 0 0 0 15 0 0 0 85 0
 8735.0 37.1 143.0 9079.0 1007.0 1165.0 0.0 152.0 0.0 0.0 114.23 0 0 0 15 0 0 0 85 0
 8736.0 32.3 139.0 8213.0 848.0 919.5 0.0 69.0 0.0 0.0 84.23 0 0 0 15 0 0 0 85 0
 8737.0 31.7 125.0 8519.0 894.0 990.0 0.0 80.0 0.0 0.0 98.63 0 0 0 15 0 0 0 85 0
 8738.0 29.5 144.0 8519.0 894.0 990.0 0.0 80.0 0.0 0.0 111.83 0 0 0 15 0 0 0 85 0
 8739.0 29.1 130.0 8935.0 707.0 816.0 0.0 43.0 0.0 0.0 92.63 0 0 0 15 0 0 0 85 0
 8740.0 28.5 140.0 8285.0 846.0 916.0 0.0 43.0 0.0 0.0 77.03 0 0 0 15 0 0 0 85 0
 8741.0 31.8 136.0 8317.0 709.0 841.0 0.0 9.0 0.0 0.0 73.42 0 0 0 15 0 0 0 85 0
 8742.0 30.0 103.0 6901.0 402.0 497.0 0.0 79.0 0.0 0.0 45.82 0 0 0 15 0 0 0 85 0
 8743.0 31.7 85.0 6901.0 402.0 497.0 0.0 0.0 0.0 0.0 84.23 0 0 0 15 0 0 0 85 0
 8744.0 30.4 104.0 8454.0 720.0 742.0 0.0 19.0 0.0 0.0 77.03 0 0 0 15 0 0 0 85 0
 8745.0 30.1 124.0 8454.0 720.0 742.0 -999.25 19.0 -999.25 -999.25 85.43 0 0 0 15 0 0 0 85 0
 8746.0 30.1 109.0 10238.0 810.0 917.0 -999.25 22.0 -999.25 -999.25 89.03 0 0 0 15 0 0 0 85 0
 8747.0 31.9 154.0 10238.0 810.0 917.0 0.0 22.0 0.0 0.0 55.42 0 0 0 15 0 0 0 85 0
 8748.0 31.9 162.0 7564.0 620.0 684.0 0.0 24.0 0.0 0.0 78.23 0 0 0 15 0 0 0 85 0
 8749.0 32.2 190.0 12258.0 1084.0 1132.0 0.0 69.0 0.0 0.0 91.43 0 0 0 15 0 0 0 85 0
 8750.0 32.2 179.0 10034.0 1102.0 1207.0 0.0 183.0 0.0 0.0 119.04 0 0 0 15 0 0 0 85 0
 8751.0 32.1 183.0 11057.0 1050.0 1251.0 0.0 121.0 0.0 0.0 110.63 0 0 0 15 0 0 0 85 0
 8752.0 31.4 140.0 9659.0 917.0 1093.0 0.0 106.0 0.0 0.0 89.03 0 0 0 15 0 0 0 85 0
 8753.0 31.4 141.0 10499.0 802.0 943.0 0.0 41.0 0.0 0.0 121.44 0 0 0 15 0 0 0 85 0
 8754.0 30.9 136.0 10499.0 802.0 943.0 0.0 41.0 0.0 0.0 104.63 0 0 0 15 0 0 0 85 0
 8755.0 30.9 137.0 7870.0 539.0 516.0 0.0 0.0 0.0 0.0 36.22 0 0 0 15 0 0 0 85 0
 8756.0 30.8 106.0 8463.5 609.5 635.5 0.0 2.0 0.0 0.0 38.62 0 0 0 15 0 0 0 85 0
 8757.0 30.1 122.0 10409.0 343.0 301.0 0.0 0.0 0.0 0.0 57.82 0 0 0 15 0 0 0 85 0
 8758.0 30.2 155.0 11970.0 394.0 346.0 0.0 0.0 0.0 0.0 104.63 0 0 0 15 0 0 0 85 0
 8759.0 31.5 189.0 13266.0 784.0 754.0 0.0 95.0 0.0 0.0 95.03 0 0 0 15 0 0 0 85 0
 8760.0 31.3 161.0 9674.0 929.0 1001.0 0.0 90.0 0.0 0.0 66.22 0 0 0 15 0 0 0 85 0
 8761.0 32.2 198.0 9868.0 948.0 1021.0 0.0 92.0 0.0 0.0 92.63 0 0 0 15 0 0 0 85 0
 8762.0 32.2 214.0 11851.5 1060.0 1169.5 0.0 91.5 0.0 0.0 63.82 0 0 0 15 0 0 0 85 0
 8763.0 32.1 268.0 11009.0 1294.0 1466.0 0.0 225.0 0.0 0.0 81.83 0 0 0 15 0 0 0 85 0
 8764.0 32.0 189.0 11009.0 1294.0 1466.0 0.0 225.0 0.0 0.0 83.03 0 0 0 15 0 0 0 85 0
 8765.0 31.1 212.0 11415.0 1200.0 1452.0 0.0 231.0 0.0 0.0 91.43 0 0 0 15 0 0 0 85 0
 8766.0 31.0 195.0 11415.0 1200.0 1452.0 0.0 231.0 0.0 0.0 104.63 0 0 0 15 0 0 0 85 0
 8767.0 30.9 178.0 10437.0 1109.0 1352.0 0.0 221.0 0.0 0.0 71.02 0 0 0 15 0 0 0 85 0
 8768.0 31.1 184.0 10971.0 1166.0 1421.0 0.0 233.0 0.0 0.0 93.83 0 0 0 15 0 0 0 85 0
 8769.0 31.2 188.0 10886.0 1232.0 1433.0 0.0 211.0 0.0 0.0 116.63 0 0 0 15 0 0 0 85 0
 8770.0 32.2 215.0 12649.0 1392.0 1637.0 0.0 212.0 0.0 0.0 106.43 0 0 0 15 0 0 0 85 0
 8771.0 32.3 205.0 12649.0 1392.0 1637.0 0.0 212.0 0.0 0.0 96.23 0 0 0 15 0 0 0 85 0
 8772.0 32.1 202.0 -999.25 -999.25 -999.25 -999.25 -999.25 -999.25 -999.25 86.03 0 0 0 15 0 0 0 85 0
 8773.0 32.4 157.0 9381.0 1135.0 1057.0 0.0 118.0 0.0 0.0 75.83 0 0 0 15 0 0 0 85 0
 8774.0 33.1 162.0 9381.0 1135.0 1057.0 0.0 118.0 0.0 0.0 51.82 0 0 0 15 0 0 0 85 0
 8775.0 33.5 95.0 7304.0 791.0 703.0 0.0 118.0 0.0 0.0 93.83 0 0 0 15 0 0 0 85 0
 8776.0 30.7 136.0 10364.0 677.0 626.0 0.0 0.0 0.0 0.0 110.63 0 0 0 15 0 0 0 85 0
 8777.0 30.8 171.0 10349.0 890.0 689.0 0.0 0.0 0.0 0.0 151.44 0 0 0 15 0 0 0 85 0
 8778.0 30.1 181.0 10349.0 890.0 689.0 0.0 0.0 0.0 0.0 179.05 0 0 0 15 0 0 0 85 0
 8779.0 29.0 168.0 -999.25 -999.25 -999.25 -999.25 -999.25 -999.25 -999.25 97.43 0 0 0 15 0 0 0 85 0
 8780.0 29.0 173.0 -999.25 -999.25 -999.25 -999.25 -999.25 -999.25 -999.25 107.03 0 0 0 15 0 0 0 85 0
 8781.0 32.0 156.0 11159.0 1267.0 1193.0 0.0 30.0 0.0 0.0 170.65 0 0 0 15 0 0 0 85 0
 8782.0 32.0 183.0 11159.0 1267.0 1193.0 0.0 30.0 0.0 0.0 138.24 0 0 0 15 0 0 0 85 0
 8783.0 33.4 -999.25 -999.25 -999.25 -999.25 -999.25 -999.25 -999.25 -999.25 140.64 0 0 0 15 0 0 0 85 0
 8784.0 33.4 -999.25 -999.25 -999.25 -999.25 -999.25 -999.25 -999.25 -999.25 121.44 0 0 0 15 0 0 0 85 0
 8785.0 33.6 -999.25 -999.25 -999.25 -999.25 -999.25 -999.25 -999.25 -999.25 149.04 0 0 0 15 0 0 0 85 0
 8786.0 32.5 -999.25 -999.25 -999.25 -999.25 -999.25 -999.25 -999.25 -999.25 137.04 0 0 0 15 0 0 0 85 0
 8787.0 31.9 -999.25 -999.25 -999.25 -999.25 -999.25 -999.25 -999.25 -999.25 115.43 0 0 0 15 0 0 0 85 0
 8788.0 31.2 -999.25 -999.25 -999.25 -999.25 -999.25 -999.25 -999.25 -999.25 86.63 0 0 0 15 0 0 0 85 0
 8789.0 29.9 114.0 8290.0 496.5 455.0 0.0 0.0 0.0 0.0 139.44 0 0 0 15 0 0 0 85 0
 8790.0 20.4 461.0 50649.5 2921.0 2075.0 0.0 0.0 0.0 0.0 146.64 0 0 0 15 0 0 0 85 0
 8791.0 16.9 127.0 9826.0 479.0 238.0 0.0 0.0 0.0 0.0 98.63 0 0 0 15 0 0 0 85 0
 8792.0 8.9 156.0 11364.5 553.5 275.0 0.0 5.0 0.0 0.0 87.83 0 0 0 15 0 0 0 85 0
 8793.0 8.9 171.0 11364.5 553.5 275.0 0.0 5.0 0.0 0.0 85.43 0 0 0 15 0 0 0 85 0
 8794.0 9.0 171.0 12221.0 1227.0 1222.0 0.0 113.0 0.0 0.0 78.23 0 0 0 15 0 0 0 85 0
 8795.0 10.4 171.0 10661.0 1070.0 1066.0 0.0 99.0 0.0 0.0 71.02 0 0 0 15 0 0 0 85 0
 8796.0 11.8 138.0 8617.0 892.0 945.0 0.0 115.0 0.0 0.0 56.62 0 0 0 15 0 0 0 85 0
 8797.0 32.7 138.0 9448.0 861.0 928.0 0.0 60.0 0.0 0.0 92.63 0 0 0 15 0 0 0 85 0
 8798.0 31.6 159.0 12981.0 1094.0 1261.0 0.0 86.0 0.0 0.0 92.63 0 0 0 15 0 0 0 85 0
 8799.0 31.9 193.0 12981.0 1094.0 1261.0 0.0 86.0 0.0 0.0 55.42 0 0 0 15 0 0 0 85 0
 8800.0 32.3 168.0 12981.0 1094.0 1261.0 0.0 86.0 0.0 0.0 33.82 0 0 0 15 0 0 0 85 0
 8801.0 33.2 154.0 -999.25 -999.25 -999.25 -999.25 -999.25 -999.25 -999.25 38.62 0 0 0 15 0 0 0 85 0
 8802.0 33.6 261.0 19313.5 2094.5 2497.0 -999.25 338.0 -999.25 -999.25 53.02 0 0 0 15 0 0 0 85 0
 8803.0 35.2 320.0 19313.5 2094.5 2497.0 0.0 338.0 0.0 0.0 54.22 0 0 0 15 0 0 0 85 0
 8804.0 35.7 463.0 24355.0 3952.0 4599.0 83.0 1309.0 0.0 37.0 55.42 0 0 0 15 0 0 0 85 0
 8805.0 36.8 517.0 22491.0 4115.0 4913.0 83.0 1479.0 0.0 37.0 61.42 0 0 0 15 0 0 0 85 0
 8806.0 36.8 601.0 25957.0 4749.0 5670.0 96.0 1707.0 0.0 43.0 71.02 0 0 0 15 0 0 0 85 0
 8807.0 37.9 572.0 19139.5 3586.0 4494.0 169.0 1459.5 52.5 127.0 68.62 0 0 0 15 0 0 0 85 0
 8808.0 37.9 513.0 19139.5 3586.0 4494.0 169.0 1459.5 52.5 127.0 97.43 0 0 0 15 0 0 0 85 0
 8809.0 38.9 519.0 19874.0 3933.0 4861.0 182.0 1621.0 21.0 90.0 113.03 0 0 0 15 0 0 0 85 0
 8810.0 39.1 453.0 19874.0 3933.0 4861.0 182.0 1621.0 21.0 90.0 101.03 0 0 0 15 0 0 0 85 0
 8811.0 38.2 439.0 18393.0 3433.0 4080.0 128.0 1354.0 16.0 76.0 68.62 0 0 0 15 0 0 0 85 0
 8812.0 37.7 437.0 18407.5 3265.5 4059.5 107.0 1313.5 0.0 28.0 71.02 0 0 0 15 0 0 0 85 0
 8813.0 38.2 358.0 18407.5 3265.5 4059.5 107.0 1313.5 0.0 28.0 59.02 0 0 0 15 0 0 0 85 0
 8814.0 38.2 332.0 15643.0 2558.0 3159.0 24.0 991.0 0.0 0.0 61.42 0 0 0 15 0 0 0 85 0
 8815.0 35.0 254.0 11329.0 1902.0 2286.0 5.0 696.0 0.0 0.0 57.82 0 0 0 15 0 0 0 85 0
 8816.0 35.0 223.0 9501.0 1595.0 1917.0 4.0 583.0 0.0 0.0 83.03 0 0 0 15 0 0 0 85 0
 8817.0 34.5 251.0 11751.0 1654.0 2168.0 0.0 582.5 0.0 0.0 86.63 0 0 0 15 0 0 0 85 0
 8818.0 34.0 236.0 12500.0 1677.0 2045.0 0.0 502.0 0.0 0.0 91.43 0 0 0 15 0 0 0 85 0
 8819.0 36.8 304.0 6586.0 939.0 1080.0 0.0 265.0 0.0 0.0 114.23 0 0 0 15 0 0 0 85 0
