~Version ---------------------------------------------------
VERS.   2.0 : CWLS log ASCII Standard -VERSION 2.0
WRAP.    NO : One line per depth step
DLM . SPACE : Column Data Section Delimiter
~Well ------------------------------------------------------
STRT.F                   0.0 : START DEPTH
STOP.F               15441.0 : STOP DEPTH
STEP.F                   1.0 : STEP
NULL.                -999.25 : NULL VALUE
COMP.                Pioneer : COMPANY
WELL.       MCCLINTIC 12C 3H : WELL
FLD . Spraberry (trend area) : FIELD
LOC .            Midland Co. : LOCATION
STAT.                  Texas : STATE
CTRY.            Midland Co. : COUNTRY
SRVC.    StrataID Technology : SERVICE COMPANY
DATE.    2022-09-16 14:07:04 : DATE
UWI .                    705 : UNIQUE WELL ID
~Curve Information -----------------------------------------
DMEA     .F     : Depth Hole (meas)
ROPA     .F/HR  : Rate of Penetration (avg)
GASA     .%     : Gas (avg)
METH     .PPM   : Methane (C1)
ETH      .PPM   : Ethane (C2)
PRP      .PPM   : Propane (C3)
IBUT     .PPM   : Iso-Butane (IC4)
NBUT     .PPM   : Nor-Butane (NC4)
IPEN     .PPM   : Iso-Pentane (IC5)
NPEN     .PPM   : Nor-Pentane (NC5)
MG1      .API   : Gamma Ray 1 reading
Anhydrite.----  : N/A
Ash      .----  : N/A
Cement   .----  : N/A
Limestone.----  : N/A
NoSample .----  : N/A
Salt     .----  : N/A
Sand     .----  : N/A
Shale    .----  : N/A
ShaleRed .----  : N/A
~Params ----------------------------------------------------
~Other -----------------------------------------------------
StrataID LAS Version 2.0 export file
~ASCII DMEA ROPA GASA METH ETH PRP IBUT NBUT IPEN NPEN MG1 Anhydrite Ash Cement Limestone NoSample Salt Sand Shale ShaleRed 
# ...
 10129.0 201.5 400.0 24854.0 4153.0 2019.0 0.0 195.0 0.0 0.0 89.78 0 0 0 20 0 0 0 80 0
 10130.0 201.5 404.0 25165.0 4205.0 2044.0 0.0 197.0 0.0 0.0 87.13 0 0 0 20 0 0 0 80 0
 10132.0 209.8 357.0 22804.0 3810.0 1852.0 0.0 178.0 0.0 0.0 78.99 0 0 0 20 0 0 0 80 0
 10133.0 211.6 343.0 22389.0 3280.0 1667.0 0.0 112.0 0.0 0.0 83.31 0 0 0 20 0 0 0 80 0
 10134.0 215.5 343.0 22194.0 3251.0 1652.0 0.0 111.0 0.0 0.0 87.63 0 0 0 20 0 0 0 80 0
 10135.0 211.8 318.0 21087.0 3089.0 1570.0 0.0 105.0 0.0 0.0 86.96 0 0 0 20 0 0 0 80 0
 10136.0 205.2 277.0 18158.0 2660.0 1352.0 0.0 90.0 0.0 0.0 87.04 0 0 0 20 0 0 0 80 0
 10138.0 203.9 302.0 20900.0 3022.0 1491.0 0.0 69.0 0.0 0.0 86.95 0 0 0 20 0 0 0 80 0
 10139.0 215.4 320.0 21098.0 3051.0 1505.0 0.0 70.0 0.0 0.0 86.79 0 0 0 20 0 0 0 80 0
 10140.0 226.2 311.0 21427.0 3099.0 1529.0 0.0 71.0 0.0 0.0 86.62 0 0 0 20 0 0 0 80 0
 10141.0 228.4 336.0 21691.0 3137.0 1548.0 0.0 72.0 0.0 0.0 86.46 0 0 0 20 0 0 0 80 0
 10142.0 234.9 338.0 23537.0 3403.5 1679.5 0.0 78.0 0.0 0.0 86.29 0 0 0 20 0 0 0 80 0
 10143.0 243.7 377.0 24658.0 3566.0 1759.5 0.0 81.5 0.0 0.0 86.12 0 0 0 20 0 0 0 80 0
 10144.0 243.7 382.0 25120.0 3633.0 1792.0 0.0 83.0 0.0 0.0 85.96 0 0 0 20 0 0 0 80 0
 10146.0 242.0 387.0 26492.0 4032.0 1740.0 0.0 55.0 0.0 0.0 85.63 0 0 0 20 0 0 0 80 0
 10147.0 237.5 388.0 26624.0 4052.0 1749.0 0.0 55.0 0.0 0.0 90.44 0 0 0 20 0 0 0 80 0
 10148.0 224.5 411.0 27088.0 4123.0 1779.0 0.0 56.0 0.0 0.0 95.25 0 0 0 20 0 0 0 80 0
 10149.0 224.5 416.0 27485.0 4183.0 1805.0 0.0 57.0 0.0 0.0 93.65 0 0 0 20 0 0 0 80 0
 10151.0 225.3 -999.25 -999.25 -999.25 -999.25 -999.25 -999.25 -999.25 -999.25 90.45 0 0 0 20 0 0 0 80 0
 10152.0 229.6 -999.25 -999.25 -999.25 -999.25 -999.25 -999.25 -999.25 -999.25 89.7 0 0 0 20 0 0 0 80 0
 10153.0 230.6 -999.25 -999.25 -999.25 -999.25 -999.25 -999.25 -999.25 -999.25 88.96 0 0 0 20 0 0 0 80 0
 10154.0 218.0 159.0 10353.5 1629.0 745.5 0.0 49.5 0.0 0.0 76.51 0 0 0 20 0 0 0 80 0
 10155.0 203.9 150.0 9999.0 1573.0 720.0 0.0 48.0 0.0 0.0 73.08 0 0 0 20 0 0 0 80 0
 10157.0 182.3 268.0 14565.0 2390.0 1217.0 0.0 0.0 0.0 0.0 66.23 0 0 0 20 0 0 0 80 0
 10158.0 182.3 346.0 24349.0 3996.0 2035.0 0.0 0.0 0.0 0.0 62.07 0 0 0 20 0 0 0 80 0
 10159.0 180.5 422.0 27705.5 4547.5 2315.5 0.0 0.0 0.0 0.0 57.91 0 0 0 20 0 0 0 80 0
 10160.0 175.8 469.0 29605.0 4859.0 2474.5 0.0 0.0 0.0 0.0 52.61 0 0 0 20 0 0 0 80 0
 10162.0 173.0 470.0 29088.0 4860.0 2703.0 0.0 19.0 0.0 0.0 64.07 0 0 0 20 0 0 0 80 0
 10165.0 177.6 400.0 24972.5 4172.5 2320.5 0.0 16.0 0.0 0.0 65.6 0 0 0 20 0 0 0 80 0
 10166.0 191.2 384.0 24570.0 4105.0 2283.0 0.0 16.0 0.0 0.0 63.17 0 0 0 20 0 0 0 80 0
 10167.0 186.1 412.0 25437.0 4250.0 2364.0 0.0 17.0 0.0 0.0 60.74 0 0 0 20 0 0 0 80 0
 10168.0 186.1 426.0 27323.5 4360.5 1900.5 0.0 100.0 0.0 0.0 72.61 0 0 0 20 0 0 0 80 0
 10169.0 201.2 422.0 28458.0 4541.0 1979.5 0.0 104.0 0.0 0.0 84.48 0 0 0 20 0 0 0 80 0
 10170.0 206.7 443.0 28523.0 4551.0 1984.0 0.0 104.0 0.0 0.0 85.63 0 0 0 20 0 0 0 80 0
 10171.0 204.2 434.0 28912.0 4614.0 2011.0 0.0 106.0 0.0 0.0 85.13 0 0 0 20 0 0 0 80 0
 10172.0 199.8 449.0 29106.0 4645.0 2025.0 0.0 106.0 0.0 0.0 84.64 0 0 0 20 0 0 0 80 0
 10173.0 195.5 472.0 30468.0 4862.0 2119.0 0.0 111.0 0.0 0.0 86.63 0 0 0 20 0 0 0 80 0
 10174.0 196.1 468.0 30971.0 4710.0 2083.0 0.0 89.0 0.0 0.0 88.61 0 0 0 20 0 0 0 80 0
 10176.0 209.8 442.0 30510.0 4640.0 2052.0 0.0 87.0 0.0 0.0 95.26 0 0 0 20 0 0 0 80 0
 10177.0 205.0 400.0 27412.5 4169.0 1843.5 0.0 78.5 0.0 0.0 85.63 0 0 0 20 0 0 0 80 0
 10178.0 198.1 428.0 29917.0 4550.0 2012.0 0.0 86.0 0.0 0.0 75.02 0 0 0 20 0 0 0 80 0
 10181.0 200.8 436.0 29505.0 4845.0 2038.0 0.0 121.0 0.0 0.0 67.72 0 0 0 20 0 0 0 80 0
 10182.0 30.8 485.0 29072.0 5026.0 2731.0 0.0 294.0 0.0 0.0 65.28 0 0 0 20 0 0 0 80 0
 10183.0 30.8 479.0 28712.0 4963.0 2698.0 0.0 291.0 0.0 0.0 62.85 0 0 0 20 0 0 0 80 0
 10185.0 31.3 479.0 28772.0 4974.0 2703.0 0.0 291.0 0.0 0.0 64.39 0 0 0 20 0 0 0 80 0
 10186.0 31.3 479.0 28712.0 4963.0 2698.0 0.0 291.0 0.0 0.0 68.12 0 0 0 20 0 0 0 80 0
 10187.0 251.6 463.0 28712.0 4963.0 2698.0 0.0 291.0 0.0 0.0 71.85 0 0 0 20 0 0 0 80 0
 10189.0 243.1 474.0 28472.0 4922.0 2675.0 0.0 288.0 0.0 0.0 65.37 0 0 0 20 0 0 0 80 0
 10191.0 222.3 462.0 29632.0 4849.0 2617.5 0.0 266.0 0.0 0.0 65.21 0 0 0 20 0 0 0 80 0
 10192.0 222.3 472.0 29970.0 4904.0 2647.0 0.0 269.0 0.0 0.0 70.36 0 0 0 20 0 0 0 80 0
 10193.0 210.7 479.0 30614.5 5009.5 2704.0 0.0 275.0 0.0 0.0 65.55 0 0 0 20 0 0 0 80 0
 10194.0 220.1 487.0 29970.0 4904.0 2647.0 0.0 269.0 0.0 0.0 60.74 0 0 0 20 0 0 0 80 0
 10195.0 220.1 476.0 30215.0 4944.0 2669.0 0.0 271.0 0.0 0.0 58 0 0 0 20 0 0 0 80 0
 10196.0 209.4 472.0 27329.0 4550.5 2430.0 0.0 242.0 0.0 0.0 55.27 0 0 0 20 0 0 0 80 0
 10197.0 217.6 474.0 29811.0 5068.0 2671.0 0.0 259.0 0.0 0.0 63.48 0 0 0 20 0 0 0 80 0
 10198.0 214.9 497.0 30085.5 5114.5 2695.5 0.0 261.0 0.0 0.0 71.69 0 0 0 20 0 0 0 80 0
 10199.0 207.6 503.0 30450.0 5176.5 2728.5 0.0 264.0 0.0 0.0 70.36 0 0 0 20 0 0 0 80 0
 10200.0 224.7 520.0 31150.0 5296.0 2791.0 0.0 270.0 0.0 0.0 75.93 0 0 0 30 0 0 0 70 0
 10201.0 231.8 523.0 31545.5 5363.0 2826.5 0.0 273.5 0.0 0.0 81.5 0 0 0 30 0 0 0 70 0
 10202.0 231.8 497.0 31484.5 5352.5 2821.0 0.0 273.0 0.0 0.0 79 0 0 0 30 0 0 0 70 0
 10203.0 234.3 485.0 30663.0 5213.0 2747.0 0.0 266.0 0.0 0.0 76.51 0 0 0 30 0 0 0 70 0
 10204.0 232.9 478.0 30603.0 5038.0 2656.0 0.0 262.0 0.0 0.0 71.45 0 0 0 30 0 0 0 70 0
 10205.0 229.1 466.0 29987.0 4937.0 2602.0 0.0 257.0 0.0 0.0 66.39 0 0 0 30 0 0 0 70 0
 10206.0 229.1 480.0 29556.0 4866.0 2565.0 0.0 253.0 0.0 0.0 73.85 0 0 0 30 0 0 0 70 0
 10207.0 227.5 495.0 30479.0 5018.0 2645.0 0.0 261.0 0.0 0.0 77.42 0 0 0 30 0 0 0 70 0
 10208.0 226.3 489.0 31157.0 5130.0 2704.0 0.0 267.0 0.0 0.0 80.99 0 0 0 30 0 0 0 70 0
 10209.0 232.8 498.0 31865.0 5246.0 2765.0 0.0 273.0 0.0 0.0 84.64 0 0 0 30 0 0 0 70 0
 10210.0 232.3 497.0 31710.5 5221.0 2751.5 0.0 271.5 0.0 0.0 88.29 0 0 0 30 0 0 0 70 0
 10213.0 222.9 509.0 31966.0 5078.0 2576.0 0.0 261.0 0.0 0.0 72.19 0 0 0 30 0 0 0 70 0
 10214.0 210.2 497.0 31369.5 4984.0 2527.5 0.0 256.5 0.0 0.0 61.91 0 0 0 30 0 0 0 70 0
 10215.0 203.9 476.0 31149.0 4949.0 2510.0 0.0 255.0 0.0 0.0 49.94 0 0 0 30 0 0 0 70 0
 10216.0 206.0 454.0 30773.0 4889.0 2480.0 0.0 251.0 0.0 0.0 59.07 0 0 0 30 0 0 0 70 0
 10217.0 204.2 457.0 29077.0 4619.0 2343.0 0.0 238.0 0.0 0.0 68.2 0 0 0 30 0 0 0 70 0
 10219.0 210.8 455.0 29486.5 4800.0 2408.5 0.0 258.5 0.0 0.0 68.54 0 0 0 30 0 0 0 70 0
 10220.0 209.4 475.0 29580.0 4815.0 2416.0 0.0 259.0 0.0 0.0 71.18 0 0 0 30 0 0 0 70 0
 10221.0 196.5 453.0 29206.0 4754.0 2386.0 0.0 256.0 0.0 0.0 74.93 0 0 0 30 0 0 0 70 0
 10222.0 188.6 455.0 29331.0 4774.0 2396.0 0.0 257.0 0.0 0.0 78.67 0 0 0 30 0 0 0 70 0
 10223.0 195.1 468.0 29331.0 4774.0 2396.0 0.0 257.0 0.0 0.0 73.53 0 0 0 30 0 0 0 70 0
 10225.0 206.5 439.0 28528.0 4578.0 2321.0 0.0 237.0 0.0 0.0 71.25 0 0 0 30 0 0 0 70 0
 10226.0 206.5 439.0 28403.0 4558.0 2311.0 0.0 236.0 0.0 0.0 74.12 0 0 0 30 0 0 0 70 0
 10227.0 236.9 465.0 28653.0 4598.0 2331.0 0.0 238.0 0.0 0.0 76.99 0 0 0 30 0 0 0 70 0
 10228.0 231.0 457.0 29404.0 4718.0 2392.0 0.0 245.0 0.0 0.0 79.5 0 0 0 30 0 0 0 70 0
 10229.0 226.8 454.0 29215.5 4688.0 2377.0 0.0 243.5 0.0 0.0 77.67 0 0 0 30 0 0 0 70 0
 10230.0 222.7 457.0 28152.5 4517.5 2290.0 0.0 234.5 0.0 0.0 75.85 0 0 0 30 0 0 0 70 0
 10231.0 218.3 436.0 28215.0 4528.0 2295.0 0.0 235.0 0.0 0.0 71.37 0 0 0 30 0 0 0 70 0
 10232.0 210.0 435.0 27835.0 4638.0 2468.0 0.0 245.0 0.0 0.0 66.89 0 0 0 30 0 0 0 70 0
 10234.0 221.8 451.0 28630.0 4770.0 2538.0 0.0 252.0 0.0 0.0 67.08 0 0 0 30 0 0 0 70 0
 10236.0 219.7 472.0 29027.5 4836.5 2573.5 0.0 256.0 0.0 0.0 67.26 0 0 0 30 0 0 0 70 0
 10237.0 216.6 469.0 28691.0 4780.0 2544.0 0.0 253.0 0.0 0.0 67.35 0 0 0 30 0 0 0 70 0
 10239.0 205.2 476.0 29008.0 4898.0 2649.0 0.0 261.0 0.0 0.0 67.53 0 0 0 30 0 0 0 70 0
 10240.0 202.5 459.0 28887.0 4878.0 2638.0 0.0 260.0 0.0 0.0 67.63 0 0 0 30 0 0 0 70 0
 10242.0 200.4 486.0 29979.0 5062.0 2738.0 0.0 270.0 0.0 0.0 67.96 0 0 0 30 0 0 0 70 0
