~Version ---------------------------------------------------
VERS.   2.0 : CWLS log ASCII Standard -VERSION 2.0
WRAP.    NO : One line per depth step
DLM . SPACE : Column Data Section Delimiter
~Well ------------------------------------------------------
STRT.F                   0.0 : START DEPTH
STOP.F               15441.0 : STOP DEPTH
STEP.F                   1.0 : STEP
NULL.                -999.25 : NULL VALUE
COMP.                Pioneer : COMPANY
WELL.       MCCLINTIC 12C 3H : WELL
FLD . Spraberry (trend area) : FIELD
LOC .            Midland Co. : LOCATION
STAT.                  Texas : STATE
CTRY.            Midland Co. : COUNTRY
SRVC.    StrataID Technology : SERVICE COMPANY
DATE.    2022-09-16 14:07:04 : DATE
UWI .                    705 : UNIQUE WELL ID
~Curve Information -----------------------------------------
DMEA     .F     : Depth Hole (meas)
ROPA     .F/HR  : Rate of Penetration (avg)
GASA     .%     : Gas (avg)
METH     .PPM   : Methane (C1)
ETH      .PPM   : Ethane (C2)
PRP      .PPM   : Propane (C3)
IBUT     .PPM   : Iso-Butane (IC4)
NBUT     .PPM   : Nor-Butane (NC4)
IPEN     .PPM   : Iso-Pentane (IC5)
NPEN     .PPM   : Nor-Pentane (NC5)
MG1      .API   : Gamma Ray 1 reading
Anhydrite.----  : N/A
Ash      .----  : N/A
Cement   .----  : N/A
Limestone.----  : N/A
NoSample .----  : N/A
Salt     .----  : N/A
Sand     .----  : N/A
Shale    .----  : N/A
ShaleRed .----  : N/A
~Params ----------------------------------------------------
~Other -----------------------------------------------------
StrataID LAS Version 2.0 export file
~ASCII DMEA ROPA GASA METH ETH PRP IBUT NBUT IPEN NPEN MG1 Anhydrite Ash Cement Limestone NoSample Salt Sand Shale ShaleRed 
# ...
 13861.0 98.5 -999.25 -999.25 -999.25 -999.25 -999.25 -999.25 -999.25 -999.25 26.12 0 0 0 90 0 0 0 10 0
 13862.0 96.7 -999.25 -999.25 -999.25 -999.25 -999.25 -999.25 -999.25 -999.25 29.85 0 0 0 90 0 0 0 10 0
 13863.0 95.2 -999.25 -999.25 -999.25 -999.25 -999.25 -999.25 -999.25 -999.25 31.98 0 0 0 90 0 0 0 10 0
 13864.0 95.2 -999.25 -999.25 -999.25 -999.25 -999.25 -999.25 -999.25 -999.25 31.18 0 0 0 90 0 0 0 10 0
 13865.0 96.1 -999.25 -999.25 -999.25 -999.25 -999.25 -999.25 -999.25 -999.25 29.32 0 0 0 90 0 0 0 10 0
 13866.0 96.1 -999.25 -999.25 -999.25 -999.25 -999.25 -999.25 -999.25 -999.25 26.65 0 0 0 90 0 0 0 10 0
 13867.0 94.0 -999.25 -999.25 -999.25 -999.25 -999.25 -999.25 -999.25 -999.25 28.78 0 0 0 90 0 0 0 10 0
 13868.0 96.1 -999.25 -999.25 -999.25 -999.25 -999.25 -999.25 -999.25 -999.25 27.45 0 0 0 90 0 0 0 10 0
 13869.0 94.4 -999.25 -999.25 -999.25 -999.25 -999.25 -999.25 -999.25 -999.25 29.32 0 0 0 90 0 0 0 10 0
 13870.0 93.2 -999.25 -999.25 -999.25 -999.25 -999.25 -999.25 -999.25 -999.25 28.25 0 0 0 90 0 0 0 10 0
 13871.0 93.2 -999.25 -999.25 -999.25 -999.25 -999.25 -999.25 -999.25 -999.25 29.58 0 0 0 90 0 0 0 10 0
 13872.0 93.3 -999.25 -999.25 -999.25 -999.25 -999.25 -999.25 -999.25 -999.25 29.05 0 0 0 90 0 0 0 10 0
 13873.0 92.0 -999.25 -999.25 -999.25 -999.25 -999.25 -999.25 -999.25 -999.25 30.38 0 0 0 90 0 0 0 10 0
 13874.0 92.0 -999.25 -999.25 -999.25 -999.25 -999.25 -999.25 -999.25 -999.25 28.78 0 0 0 90 0 0 0 10 0
 13875.0 33.0 -999.25 -999.25 -999.25 -999.25 -999.25 -999.25 -999.25 -999.25 28.25 0 0 0 90 0 0 0 10 0
 13876.0 33.1 -999.25 -999.25 -999.25 -999.25 -999.25 -999.25 -999.25 -999.25 30.65 0 0 0 90 0 0 0 10 0
 13877.0 33.3 -999.25 -999.25 -999.25 -999.25 -999.25 -999.25 -999.25 -999.25 29.32 0 0 0 90 0 0 0 10 0
 13878.0 33.6 -999.25 -999.25 -999.25 -999.25 -999.25 -999.25 -999.25 -999.25 27.45 0 0 0 90 0 0 0 10 0
 13879.0 99.7 -999.25 -999.25 -999.25 -999.25 -999.25 -999.25 -999.25 -999.25 30.11 0 0 0 90 0 0 0 10 0
 13880.0 100.2 -999.25 -999.25 -999.25 -999.25 -999.25 -999.25 -999.25 -999.25 29.32 0 0 0 90 0 0 0 10 0
 13881.0 99.5 -999.25 -999.25 -999.25 -999.25 -999.25 -999.25 -999.25 -999.25 28.52 0 0 0 90 0 0 0 10 0
 13882.0 100.0 -999.25 -999.25 -999.25 -999.25 -999.25 -999.25 -999.25 -999.25 27.98 0 0 0 90 0 0 0 10 0
 13883.0 100.0 -999.25 -999.25 -999.25 -999.25 -999.25 -999.25 -999.25 -999.25 29.32 0 0 0 90 0 0 0 10 0
 13884.0 101.0 -999.25 -999.25 -999.25 -999.25 -999.25 -999.25 -999.25 -999.25 29.58 0 0 0 90 0 0 0 10 0
 13885.0 101.0 -999.25 -999.25 -999.25 -999.25 -999.25 -999.25 -999.25 -999.25 28.78 0 0 0 90 0 0 0 10 0
 13886.0 101.0 -999.25 -999.25 -999.25 -999.25 -999.25 -999.25 -999.25 -999.25 29.05 0 0 0 90 0 0 0 10 0
 13887.0 100.5 -999.25 -999.25 -999.25 -999.25 -999.25 -999.25 -999.25 -999.25 28.25 0 0 0 90 0 0 0 10 0
 13888.0 100.8 -999.25 -999.25 -999.25 -999.25 -999.25 -999.25 -999.25 -999.25 27.72 0 0 0 90 0 0 0 10 0
 13889.0 99.9 -999.25 -999.25 -999.25 -999.25 -999.25 -999.25 -999.25 -999.25 30.65 0 0 0 90 0 0 0 10 0
 13890.0 99.7 -999.25 -999.25 -999.25 -999.25 -999.25 -999.25 -999.25 -999.25 28.78 0 0 0 90 0 0 0 10 0
 13891.0 100.0 -999.25 -999.25 -999.25 -999.25 -999.25 -999.25 -999.25 -999.25 29.32 0 0 0 90 0 0 0 10 0
 13892.0 100.0 -999.25 -999.25 -999.25 -999.25 -999.25 -999.25 -999.25 -999.25 29.05 0 0 0 90 0 0 0 10 0
 13893.0 99.3 -999.25 -999.25 -999.25 -999.25 -999.25 -999.25 -999.25 -999.25 30.11 0 0 0 90 0 0 0 10 0
 13894.0 99.2 -999.25 -999.25 -999.25 -999.25 -999.25 -999.25 -999.25 -999.25 28.38 0 0 0 90 0 0 0 10 0
 13895.0 100.2 -999.25 -999.25 -999.25 -999.25 -999.25 -999.25 -999.25 -999.25 26.65 0 0 0 90 0 0 0 10 0
 13896.0 99.9 -999.25 -999.25 -999.25 -999.25 -999.25 -999.25 -999.25 -999.25 27.45 0 0 0 90 0 0 0 10 0
 13897.0 101.0 -999.25 -999.25 -999.25 -999.25 -999.25 -999.25 -999.25 -999.25 30.38 0 0 0 90 0 0 0 10 0
 13899.0 100.7 -999.25 -999.25 -999.25 -999.25 -999.25 -999.25 -999.25 -999.25 30.91 0 0 0 90 0 0 0 10 0
 13900.0 100.7 -999.25 -999.25 -999.25 -999.25 -999.25 -999.25 -999.25 -999.25 30.91 0 0 0 80 0 0 0 20 0
 13901.0 100.7 -999.25 -999.25 -999.25 -999.25 -999.25 -999.25 -999.25 -999.25 30.11 0 0 0 80 0 0 0 20 0
 13902.0 100.7 -999.25 -999.25 -999.25 -999.25 -999.25 -999.25 -999.25 -999.25 29.32 0 0 0 80 0 0 0 20 0
 13903.0 100.8 -999.25 -999.25 -999.25 -999.25 -999.25 -999.25 -999.25 -999.25 30.11 0 0 0 80 0 0 0 20 0
 13904.0 99.7 -999.25 -999.25 -999.25 -999.25 -999.25 -999.25 -999.25 -999.25 30.91 0 0 0 80 0 0 0 20 0
 13905.0 99.5 -999.25 -999.25 -999.25 -999.25 -999.25 -999.25 -999.25 -999.25 27.98 0 0 0 80 0 0 0 20 0
 13906.0 99.5 -999.25 -999.25 -999.25 -999.25 -999.25 -999.25 -999.25 -999.25 31.18 0 0 0 80 0 0 0 20 0
 13907.0 99.5 -999.25 -999.25 -999.25 -999.25 -999.25 -999.25 -999.25 -999.25 30.11 0 0 0 80 0 0 0 20 0
 13908.0 99.5 -999.25 -999.25 -999.25 -999.25 -999.25 -999.25 -999.25 -999.25 30.65 0 0 0 80 0 0 0 20 0
 13909.0 99.5 -999.25 -999.25 -999.25 -999.25 -999.25 -999.25 -999.25 -999.25 31.18 0 0 0 80 0 0 0 20 0
 13910.0 100.1 -999.25 -999.25 -999.25 -999.25 -999.25 -999.25 -999.25 -999.25 30.11 0 0 0 80 0 0 0 20 0
 13911.0 100.4 -999.25 -999.25 -999.25 -999.25 -999.25 -999.25 -999.25 -999.25 30.91 0 0 0 80 0 0 0 20 0
 13912.0 99.5 -999.25 -999.25 -999.25 -999.25 -999.25 -999.25 -999.25 -999.25 34.11 0 0 0 80 0 0 0 20 0
 13913.0 99.7 -999.25 -999.25 -999.25 -999.25 -999.25 -999.25 -999.25 -999.25 30.11 0 0 0 80 0 0 0 20 0
 13914.0 99.7 -999.25 -999.25 -999.25 -999.25 -999.25 -999.25 -999.25 -999.25 29.58 0 0 0 80 0 0 0 20 0
 13915.0 100.1 -999.25 -999.25 -999.25 -999.25 -999.25 -999.25 -999.25 -999.25 29.05 0 0 0 80 0 0 0 20 0
 13916.0 99.4 -999.25 -999.25 -999.25 -999.25 -999.25 -999.25 -999.25 -999.25 27.45 0 0 0 80 0 0 0 20 0
 13917.0 99.6 -999.25 -999.25 -999.25 -999.25 -999.25 -999.25 -999.25 -999.25 28.25 0 0 0 80 0 0 0 20 0
 13918.0 99.6 -999.25 -999.25 -999.25 -999.25 -999.25 -999.25 -999.25 -999.25 29.85 0 0 0 80 0 0 0 20 0
 13919.0 99.9 -999.25 -999.25 -999.25 -999.25 -999.25 -999.25 -999.25 -999.25 30.91 0 0 0 80 0 0 0 20 0
 13920.0 99.6 -999.25 -999.25 -999.25 -999.25 -999.25 -999.25 -999.25 -999.25 30.38 0 0 0 80 0 0 0 20 0
 13921.0 99.6 -999.25 -999.25 -999.25 -999.25 -999.25 -999.25 -999.25 -999.25 30.11 0 0 0 80 0 0 0 20 0
 13922.0 101.6 -999.25 -999.25 -999.25 -999.25 -999.25 -999.25 -999.25 -999.25 29.58 0 0 0 80 0 0 0 20 0
 13923.0 100.5 -999.25 -999.25 -999.25 -999.25 -999.25 -999.25 -999.25 -999.25 30.91 0 0 0 80 0 0 0 20 0
 13924.0 98.9 -999.25 -999.25 -999.25 -999.25 -999.25 -999.25 -999.25 -999.25 30.38 0 0 0 80 0 0 0 20 0
 13925.0 99.4 -999.25 -999.25 -999.25 -999.25 -999.25 -999.25 -999.25 -999.25 30.11 0 0 0 80 0 0 0 20 0
 13926.0 99.4 -999.25 -999.25 -999.25 -999.25 -999.25 -999.25 -999.25 -999.25 26.65 0 0 0 80 0 0 0 20 0
 13927.0 98.1 -999.25 -999.25 -999.25 -999.25 -999.25 -999.25 -999.25 -999.25 29.58 0 0 0 80 0 0 0 20 0
 13928.0 99.0 -999.25 -999.25 -999.25 -999.25 -999.25 -999.25 -999.25 -999.25 27.98 0 0 0 80 0 0 0 20 0
 13929.0 99.9 -999.25 -999.25 -999.25 -999.25 -999.25 -999.25 -999.25 -999.25 31.98 0 0 0 80 0 0 0 20 0
 13930.0 99.9 -999.25 -999.25 -999.25 -999.25 -999.25 -999.25 -999.25 -999.25 30.38 0 0 0 80 0 0 0 20 0
 13931.0 99.7 -999.25 -999.25 -999.25 -999.25 -999.25 -999.25 -999.25 -999.25 28.78 0 0 0 80 0 0 0 20 0
 13932.0 100.0 -999.25 -999.25 -999.25 -999.25 -999.25 -999.25 -999.25 -999.25 26.38 0 0 0 80 0 0 0 20 0
 13933.0 100.2 -999.25 -999.25 -999.25 -999.25 -999.25 -999.25 -999.25 -999.25 25.85 0 0 0 80 0 0 0 20 0
 13934.0 100.2 -999.25 -999.25 -999.25 -999.25 -999.25 -999.25 -999.25 -999.25 29.58 0 0 0 80 0 0 0 20 0
 13935.0 100.2 -999.25 -999.25 -999.25 -999.25 -999.25 -999.25 -999.25 -999.25 29.05 0 0 0 80 0 0 0 20 0
 13937.0 100.4 -999.25 -999.25 -999.25 -999.25 -999.25 -999.25 -999.25 -999.25 26.65 0 0 0 80 0 0 0 20 0
 13938.0 99.9 -999.25 -999.25 -999.25 -999.25 -999.25 -999.25 -999.25 -999.25 31.45 0 0 0 80 0 0 0 20 0
 13939.0 101.0 -999.25 -999.25 -999.25 -999.25 -999.25 -999.25 -999.25 -999.25 26.12 0 0 0 80 0 0 0 20 0
