~Version ---------------------------------------------------
VERS.   2.0 : CWLS log ASCII Standard -VERSION 2.0
WRAP.    NO : One line per depth step
DLM . SPACE : Column Data Section Delimiter
~Well ------------------------------------------------------
STRT.F                   0.0 : START DEPTH
STOP.F               15441.0 : STOP DEPTH
STEP.F                   1.0 : STEP
NULL.                -999.25 : NULL VALUE
COMP.                Pioneer : COMPANY
WELL.       MCCLINTIC 12C 3H : WELL
FLD . Spraberry (trend area) : FIELD
LOC .            Midland Co. : LOCATION
STAT.                  Texas : STATE
CTRY.            Midland Co. : COUNTRY
SRVC.    StrataID Technology : SERVICE COMPANY
DATE.    2022-09-16 14:07:04 : DATE
UWI .                    705 : UNIQUE WELL ID
~Curve Information -----------------------------------------
DMEA     .F     : Depth Hole (meas)
ROPA     .F/HR  : Rate of Penetration (avg)
GASA     .%     : Gas (avg)
METH     .PPM   : Methane (C1)
ETH      .PPM   : Ethane (C2)
PRP      .PPM   : Propane (C3)
IBUT     .PPM   : Iso-Butane (IC4)
NBUT     .PPM   : Nor-Butane (NC4)
IPEN     .PPM   : Iso-Pentane (IC5)
NPEN     .PPM   : Nor-Pentane (NC5)
MG1      .API   : Gamma Ray 1 reading
Anhydrite.----  : N/A
Ash      .----  : N/A
Cement   .----  : N/A
Limestone.----  : N/A
NoSample .----  : N/A
Salt     .----  : N/A
Sand     .----  : N/A
Shale    .----  : N/A
ShaleRed .----  : N/A
~Params ----------------------------------------------------
~Other -----------------------------------------------------
StrataID LAS Version 2.0 export file
~ASCII DMEA ROPA GASA METH ETH PRP IBUT NBUT IPEN NPEN MG1 Anhydrite Ash Cement Limestone NoSample Salt Sand Shale ShaleRed 
# ...
 14614.0 138.0 -999.25 -999.25 -999.25 -999.25 -999.25 -999.25 -999.25 -999.25 102.34 0 0 0 40 0 0 0 60 0
 14615.0 142.5 -999.25 -999.25 -999.25 -999.25 -999.25 -999.25 -999.25 -999.25 103.94 0 0 0 40 0 0 0 60 0
 14617.0 147.8 -999.25 -999.25 -999.25 -999.25 -999.25 -999.25 -999.25 -999.25 -999.25 0 0 0 40 0 0 0 60 0
 14618.0 155.0 -999.25 -999.25 -999.25 -999.25 -999.25 -999.25 -999.25 -999.25 -999.25 0 0 0 40 0 0 0 60 0
 14619.0 155.0 -999.25 -999.25 -999.25 -999.25 -999.25 -999.25 -999.25 -999.25 -999.25 0 0 0 40 0 0 0 60 0
 14621.0 160.6 -999.25 -999.25 -999.25 -999.25 -999.25 -999.25 -999.25 -999.25 -999.25 0 0 0 40 0 0 0 60 0
 14622.0 158.6 -999.25 -999.25 -999.25 -999.25 -999.25 -999.25 -999.25 -999.25 -999.25 0 0 0 40 0 0 0 60 0
 14625.0 158.8 -999.25 -999.25 -999.25 -999.25 -999.25 -999.25 -999.25 -999.25 -999.25 0 0 0 40 0 0 0 60 0
 14629.0 158.2 -999.25 -999.25 -999.25 -999.25 -999.25 -999.25 -999.25 -999.25 -999.25 0 0 0 40 0 0 0 60 0
 14630.0 158.2 -999.25 -999.25 -999.25 -999.25 -999.25 -999.25 -999.25 -999.25 -999.25 0 0 0 40 0 0 0 60 0
 14631.0 157.6 -999.25 -999.25 -999.25 -999.25 -999.25 -999.25 -999.25 -999.25 -999.25 0 0 0 40 0 0 0 60 0
 14632.0 156.7 -999.25 -999.25 -999.25 -999.25 -999.25 -999.25 -999.25 -999.25 -999.25 0 0 0 40 0 0 0 60 0
 14633.0 155.5 -999.25 -999.25 -999.25 -999.25 -999.25 -999.25 -999.25 -999.25 -999.25 0 0 0 40 0 0 0 60 0
 14636.0 38.0 -999.25 -999.25 -999.25 -999.25 -999.25 -999.25 -999.25 -999.25 -999.25 0 0 0 40 0 0 0 60 0
 14637.0 36.7 -999.25 -999.25 -999.25 -999.25 -999.25 -999.25 -999.25 -999.25 -999.25 0 0 0 40 0 0 0 60 0
 14638.0 35.8 -999.25 -999.25 -999.25 -999.25 -999.25 -999.25 -999.25 -999.25 -999.25 0 0 0 40 0 0 0 60 0
 14639.0 35.1 -999.25 -999.25 -999.25 -999.25 -999.25 -999.25 -999.25 -999.25 -999.25 0 0 0 40 0 0 0 60 0
 14640.0 107.1 -999.25 -999.25 -999.25 -999.25 -999.25 -999.25 -999.25 -999.25 -999.25 0 0 0 40 0 0 0 60 0
 14641.0 104.1 -999.25 -999.25 -999.25 -999.25 -999.25 -999.25 -999.25 -999.25 -999.25 0 0 0 40 0 0 0 60 0
 14642.0 103.7 -999.25 -999.25 -999.25 -999.25 -999.25 -999.25 -999.25 -999.25 -999.25 0 0 0 40 0 0 0 60 0
 14643.0 103.7 -999.25 -999.25 -999.25 -999.25 -999.25 -999.25 -999.25 -999.25 -999.25 0 0 0 40 0 0 0 60 0
 14644.0 103.2 -999.25 -999.25 -999.25 -999.25 -999.25 -999.25 -999.25 -999.25 -999.25 0 0 0 40 0 0 0 60 0
 14645.0 102.6 -999.25 -999.25 -999.25 -999.25 -999.25 -999.25 -999.25 -999.25 -999.25 0 0 0 40 0 0 0 60 0
 14646.0 102.3 -999.25 -999.25 -999.25 -999.25 -999.25 -999.25 -999.25 -999.25 -999.25 0 0 0 40 0 0 0 60 0
 14647.0 102.9 -999.25 -999.25 -999.25 -999.25 -999.25 -999.25 -999.25 -999.25 -999.25 0 0 0 40 0 0 0 60 0
 14648.0 103.9 -999.25 -999.25 -999.25 -999.25 -999.25 -999.25 -999.25 -999.25 -999.25 0 0 0 40 0 0 0 60 0
 14650.0 104.1 -999.25 -999.25 -999.25 -999.25 -999.25 -999.25 -999.25 -999.25 -999.25 0 0 0 40 0 0 0 60 0
 14651.0 104.1 -999.25 -999.25 -999.25 -999.25 -999.25 -999.25 -999.25 -999.25 -999.25 0 0 0 40 0 0 0 60 0
 14652.0 103.5 -999.25 -999.25 -999.25 -999.25 -999.25 -999.25 -999.25 -999.25 -999.25 0 0 0 40 0 0 0 60 0
 14653.0 102.5 -999.25 -999.25 -999.25 -999.25 -999.25 -999.25 -999.25 -999.25 -999.25 0 0 0 40 0 0 0 60 0
 14654.0 103.0 -999.25 -999.25 -999.25 -999.25 -999.25 -999.25 -999.25 -999.25 -999.25 0 0 0 40 0 0 0 60 0
 14655.0 102.7 -999.25 -999.25 -999.25 -999.25 -999.25 -999.25 -999.25 -999.25 -999.25 0 0 0 40 0 0 0 60 0
 14656.0 102.7 -999.25 -999.25 -999.25 -999.25 -999.25 -999.25 -999.25 -999.25 -999.25 0 0 0 40 0 0 0 60 0
 14657.0 104.2 -999.25 -999.25 -999.25 -999.25 -999.25 -999.25 -999.25 -999.25 -999.25 0 0 0 40 0 0 0 60 0
 14658.0 104.2 -999.25 -999.25 -999.25 -999.25 -999.25 -999.25 -999.25 -999.25 -999.25 0 0 0 40 0 0 0 60 0
 14659.0 104.0 -999.25 -999.25 -999.25 -999.25 -999.25 -999.25 -999.25 -999.25 -999.25 0 0 0 40 0 0 0 60 0
 14660.0 102.8 -999.25 -999.25 -999.25 -999.25 -999.25 -999.25 -999.25 -999.25 -999.25 0 0 0 40 0 0 0 60 0
 14661.0 102.0 -999.25 -999.25 -999.25 -999.25 -999.25 -999.25 -999.25 -999.25 -999.25 0 0 0 40 0 0 0 60 0
 14662.0 100.9 -999.25 -999.25 -999.25 -999.25 -999.25 -999.25 -999.25 -999.25 -999.25 0 0 0 40 0 0 0 60 0
 14663.0 100.9 -999.25 -999.25 -999.25 -999.25 -999.25 -999.25 -999.25 -999.25 -999.25 0 0 0 40 0 0 0 60 0
 14664.0 101.3 -999.25 -999.25 -999.25 -999.25 -999.25 -999.25 -999.25 -999.25 -999.25 0 0 0 40 0 0 0 60 0
 14666.0 102.0 -999.25 -999.25 -999.25 -999.25 -999.25 -999.25 -999.25 -999.25 -999.25 0 0 0 40 0 0 0 60 0
 14667.0 9.5 -999.25 -999.25 -999.25 -999.25 -999.25 -999.25 -999.25 -999.25 -999.25 0 0 0 40 0 0 0 60 0
 14668.0 9.5 -999.25 -999.25 -999.25 -999.25 -999.25 -999.25 -999.25 -999.25 -999.25 0 0 0 40 0 0 0 60 0
 14669.0 9.5 -999.25 -999.25 -999.25 -999.25 -999.25 -999.25 -999.25 -999.25 -999.25 0 0 0 40 0 0 0 60 0
 14671.0 9.5 -999.25 -999.25 -999.25 -999.25 -999.25 -999.25 -999.25 -999.25 -999.25 0 0 0 40 0 0 0 60 0
 14672.0 104.8 -999.25 -999.25 -999.25 -999.25 -999.25 -999.25 -999.25 -999.25 -999.25 0 0 0 40 0 0 0 60 0
 14673.0 104.6 -999.25 -999.25 -999.25 -999.25 -999.25 -999.25 -999.25 -999.25 -999.25 0 0 0 40 0 0 0 60 0
 14674.0 104.4 -999.25 -999.25 -999.25 -999.25 -999.25 -999.25 -999.25 -999.25 -999.25 0 0 0 40 0 0 0 60 0
 14675.0 103.6 -999.25 -999.25 -999.25 -999.25 -999.25 -999.25 -999.25 -999.25 -999.25 0 0 0 40 0 0 0 60 0
 14676.0 103.2 -999.25 -999.25 -999.25 -999.25 -999.25 -999.25 -999.25 -999.25 -999.25 0 0 0 40 0 0 0 60 0
 14677.0 103.0 -999.25 -999.25 -999.25 -999.25 -999.25 -999.25 -999.25 -999.25 -999.25 0 0 0 40 0 0 0 60 0
 14679.0 102.2 -999.25 -999.25 -999.25 -999.25 -999.25 -999.25 -999.25 -999.25 -999.25 0 0 0 40 0 0 0 60 0
 14680.0 102.0 -999.25 -999.25 -999.25 -999.25 -999.25 -999.25 -999.25 -999.25 -999.25 0 0 0 40 0 0 0 60 0
 14681.0 102.0 -999.25 -999.25 -999.25 -999.25 -999.25 -999.25 -999.25 -999.25 -999.25 0 0 0 40 0 0 0 60 0
 14682.0 100.9 -999.25 -999.25 -999.25 -999.25 -999.25 -999.25 -999.25 -999.25 -999.25 0 0 0 40 0 0 0 60 0
 14683.0 101.6 -999.25 -999.25 -999.25 -999.25 -999.25 -999.25 -999.25 -999.25 -999.25 0 0 0 40 0 0 0 60 0
 14684.0 102.4 -999.25 -999.25 -999.25 -999.25 -999.25 -999.25 -999.25 -999.25 -999.25 0 0 0 40 0 0 0 60 0
 14685.0 102.4 -999.25 -999.25 -999.25 -999.25 -999.25 -999.25 -999.25 -999.25 -999.25 0 0 0 40 0 0 0 60 0
 14686.0 104.0 -999.25 -999.25 -999.25 -999.25 -999.25 -999.25 -999.25 -999.25 -999.25 0 0 0 40 0 0 0 60 0
 14687.0 103.8 -999.25 -999.25 -999.25 -999.25 -999.25 -999.25 -999.25 -999.25 -999.25 0 0 0 40 0 0 0 60 0
 14688.0 103.8 -999.25 -999.25 -999.25 -999.25 -999.25 -999.25 -999.25 -999.25 -999.25 0 0 0 40 0 0 0 60 0
 14689.0 103.2 -999.25 -999.25 -999.25 -999.25 -999.25 -999.25 -999.25 -999.25 -999.25 0 0 0 40 0 0 0 60 0
 14690.0 102.8 -999.25 -999.25 -999.25 -999.25 -999.25 -999.25 -999.25 -999.25 -999.25 0 0 0 40 0 0 0 60 0
 14691.0 102.4 -999.25 -999.25 -999.25 -999.25 -999.25 -999.25 -999.25 -999.25 -999.25 0 0 0 40 0 0 0 60 0
 14692.0 103.4 -999.25 -999.25 -999.25 -999.25 -999.25 -999.25 -999.25 -999.25 -999.25 0 0 0 40 0 0 0 60 0
 14693.0 103.0 -999.25 -999.25 -999.25 -999.25 -999.25 -999.25 -999.25 -999.25 -999.25 0 0 0 40 0 0 0 60 0
 14694.0 102.8 -999.25 -999.25 -999.25 -999.25 -999.25 -999.25 -999.25 -999.25 -999.25 0 0 0 40 0 0 0 60 0
 14695.0 102.6 -999.25 -999.25 -999.25 -999.25 -999.25 -999.25 -999.25 -999.25 -999.25 0 0 0 40 0 0 0 60 0
 14696.0 102.2 -999.25 -999.25 -999.25 -999.25 -999.25 -999.25 -999.25 -999.25 -999.25 0 0 0 40 0 0 0 60 0
 14697.0 101.6 -999.25 -999.25 -999.25 -999.25 -999.25 -999.25 -999.25 -999.25 -999.25 0 0 0 40 0 0 0 60 0
 14698.0 101.6 -999.25 -999.25 -999.25 -999.25 -999.25 -999.25 -999.25 -999.25 -999.25 0 0 0 40 0 0 0 60 0
 14699.0 103.6 -999.25 -999.25 -999.25 -999.25 -999.25 -999.25 -999.25 -999.25 -999.25 0 0 0 40 0 0 0 60 0
 14700.0 103.2 -999.25 -999.25 -999.25 -999.25 -999.25 -999.25 -999.25 -999.25 -999.25 0 0 0 40 0 0 0 60 0
 14701.0 102.4 -999.25 -999.25 -999.25 -999.25 -999.25 -999.25 -999.25 -999.25 -999.25 0 0 0 40 0 0 0 60 0
