~Version ---------------------------------------------------
VERS.   2.0 : CWLS log ASCII Standard -VERSION 2.0
WRAP.    NO : One line per depth step
DLM . SPACE : Column Data Section Delimiter
~Well ------------------------------------------------------
STRT.F                   0.0 : START DEPTH
STOP.F               15441.0 : STOP DEPTH
STEP.F                   1.0 : STEP
NULL.                -999.25 : NULL VALUE
COMP.                Pioneer : COMPANY
WELL.       MCCLINTIC 12C 3H : WELL
FLD . Spraberry (trend area) : FIELD
LOC .            Midland Co. : LOCATION
STAT.                  Texas : STATE
CTRY.            Midland Co. : COUNTRY
SRVC.    StrataID Technology : SERVICE COMPANY
DATE.    2022-09-16 14:07:04 : DATE
UWI .                    705 : UNIQUE WELL ID
~Curve Information -----------------------------------------
DMEA     .F     : Depth Hole (meas)
ROPA     .F/HR  : Rate of Penetration (avg)
GASA     .%     : Gas (avg)
METH     .PPM   : Methane (C1)
ETH      .PPM   : Ethane (C2)
PRP      .PPM   : Propane (C3)
IBUT     .PPM   : Iso-Butane (IC4)
NBUT     .PPM   : Nor-Butane (NC4)
IPEN     .PPM   : Iso-Pentane (IC5)
NPEN     .PPM   : Nor-Pentane (NC5)
MG1      .API   : Gamma Ray 1 reading
Anhydrite.----  : N/A
Ash      .----  : N/A
Cement   .----  : N/A
Limestone.----  : N/A
NoSample .----  : N/A
Salt     .----  : N/A
Sand     .----  : N/A
Shale    .----  : N/A
ShaleRed .----  : N/A
~Params ----------------------------------------------------
~Other -----------------------------------------------------
StrataID LAS Version 2.0 export file
~ASCII DMEA ROPA GASA METH ETH PRP IBUT NBUT IPEN NPEN MG1 Anhydrite Ash Cement Limestone NoSample Salt Sand Shale ShaleRed 
# ...
 15338.0 126.3 -999.25 -999.25 -999.25 -999.25 -999.25 -999.25 -999.25 -999.25 -999.25 0 0 0 40 0 0 0 60 0
 15339.0 127.0 -999.25 -999.25 -999.25 -999.25 -999.25 -999.25 -999.25 -999.25 -999.25 0 0 0 40 0 0 0 60 0
 15340.0 125.8 -999.25 -999.25 -999.25 -999.25 -999.25 -999.25 -999.25 -999.25 -999.25 0 0 0 40 0 0 0 60 0
 15341.0 126.5 -999.25 -999.25 -999.25 -999.25 -999.25 -999.25 -999.25 -999.25 -999.25 0 0 0 40 0 0 0 60 0
 15342.0 125.8 -999.25 -999.25 -999.25 -999.25 -999.25 -999.25 -999.25 -999.25 -999.25 0 0 0 40 0 0 0 60 0
 15344.0 126.8 -999.25 -999.25 -999.25 -999.25 -999.25 -999.25 -999.25 -999.25 -999.25 0 0 0 40 0 0 0 60 0
 15345.0 127.5 -999.25 -999.25 -999.25 -999.25 -999.25 -999.25 -999.25 -999.25 -999.25 0 0 0 40 0 0 0 60 0
 15346.0 129.0 -999.25 -999.25 -999.25 -999.25 -999.25 -999.25 -999.25 -999.25 -999.25 0 0 0 40 0 0 0 60 0
 15347.0 129.8 -999.25 -999.25 -999.25 -999.25 -999.25 -999.25 -999.25 -999.25 -999.25 0 0 0 40 0 0 0 60 0
 15348.0 129.8 -999.25 -999.25 -999.25 -999.25 -999.25 -999.25 -999.25 -999.25 -999.25 0 0 0 40 0 0 0 60 0
 15350.0 128.6 -999.25 -999.25 -999.25 -999.25 -999.25 -999.25 -999.25 -999.25 -999.25 0 0 0 40 0 0 0 60 0
 15351.0 127.3 -999.25 -999.25 -999.25 -999.25 -999.25 -999.25 -999.25 -999.25 -999.25 0 0 0 40 0 0 0 60 0
 15352.0 127.5 -999.25 -999.25 -999.25 -999.25 -999.25 -999.25 -999.25 -999.25 -999.25 0 0 0 40 0 0 0 60 0
 15353.0 127.8 -999.25 -999.25 -999.25 -999.25 -999.25 -999.25 -999.25 -999.25 -999.25 0 0 0 40 0 0 0 60 0
 15354.0 128.3 -999.25 -999.25 -999.25 -999.25 -999.25 -999.25 -999.25 -999.25 -999.25 0 0 0 40 0 0 0 60 0
 15355.0 128.3 -999.25 -999.25 -999.25 -999.25 -999.25 -999.25 -999.25 -999.25 -999.25 0 0 0 40 0 0 0 60 0
 15356.0 127.8 -999.25 -999.25 -999.25 -999.25 -999.25 -999.25 -999.25 -999.25 -999.25 0 0 0 40 0 0 0 60 0
 15357.0 126.5 -999.25 -999.25 -999.25 -999.25 -999.25 -999.25 -999.25 -999.25 -999.25 0 0 0 40 0 0 0 60 0
 15359.0 127.5 -999.25 -999.25 -999.25 -999.25 -999.25 -999.25 -999.25 -999.25 -999.25 0 0 0 40 0 0 0 60 0
 15361.0 128.0 -999.25 -999.25 -999.25 -999.25 -999.25 -999.25 -999.25 -999.25 -999.25 0 0 0 40 0 0 0 60 0
 15362.0 128.3 -999.25 -999.25 -999.25 -999.25 -999.25 -999.25 -999.25 -999.25 -999.25 0 0 0 40 0 0 0 60 0
 15363.0 128.5 -999.25 -999.25 -999.25 -999.25 -999.25 -999.25 -999.25 -999.25 -999.25 0 0 0 40 0 0 0 60 0
 15364.0 127.0 -999.25 -999.25 -999.25 -999.25 -999.25 -999.25 -999.25 -999.25 -999.25 0 0 0 40 0 0 0 60 0
 15365.0 127.3 -999.25 -999.25 -999.25 -999.25 -999.25 -999.25 -999.25 -999.25 -999.25 0 0 0 40 0 0 0 60 0
 15366.0 126.3 -999.25 -999.25 -999.25 -999.25 -999.25 -999.25 -999.25 -999.25 -999.25 0 0 0 40 0 0 0 60 0
 15367.0 126.3 -999.25 -999.25 -999.25 -999.25 -999.25 -999.25 -999.25 -999.25 -999.25 0 0 0 40 0 0 0 60 0
 15368.0 126.3 -999.25 -999.25 -999.25 -999.25 -999.25 -999.25 -999.25 -999.25 -999.25 0 0 0 40 0 0 0 60 0
 15369.0 126.3 -999.25 -999.25 -999.25 -999.25 -999.25 -999.25 -999.25 -999.25 -999.25 0 0 0 40 0 0 0 60 0
 15370.0 126.3 -999.25 -999.25 -999.25 -999.25 -999.25 -999.25 -999.25 -999.25 -999.25 0 0 0 40 0 0 0 60 0
 15371.0 126.0 -999.25 -999.25 -999.25 -999.25 -999.25 -999.25 -999.25 -999.25 -999.25 0 0 0 40 0 0 0 60 0
 15372.0 126.0 -999.25 -999.25 -999.25 -999.25 -999.25 -999.25 -999.25 -999.25 -999.25 0 0 0 40 0 0 0 60 0
 15373.0 126.0 -999.25 -999.25 -999.25 -999.25 -999.25 -999.25 -999.25 -999.25 -999.25 0 0 0 40 0 0 0 60 0
 15374.0 126.0 -999.25 -999.25 -999.25 -999.25 -999.25 -999.25 -999.25 -999.25 -999.25 0 0 0 40 0 0 0 60 0
 15375.0 126.1 -999.25 -999.25 -999.25 -999.25 -999.25 -999.25 -999.25 -999.25 -999.25 0 0 0 40 0 0 0 60 0
 15376.0 126.1 -999.25 -999.25 -999.25 -999.25 -999.25 -999.25 -999.25 -999.25 -999.25 0 0 0 40 0 0 0 60 0
 15377.0 124.4 -999.25 -999.25 -999.25 -999.25 -999.25 -999.25 -999.25 -999.25 -999.25 0 0 0 40 0 0 0 60 0
 15378.0 125.6 -999.25 -999.25 -999.25 -999.25 -999.25 -999.25 -999.25 -999.25 -999.25 0 0 0 40 0 0 0 60 0
 15379.0 125.6 -999.25 -999.25 -999.25 -999.25 -999.25 -999.25 -999.25 -999.25 -999.25 0 0 0 40 0 0 0 60 0
 15380.0 126.8 -999.25 -999.25 -999.25 -999.25 -999.25 -999.25 -999.25 -999.25 -999.25 0 0 0 40 0 0 0 60 0
 15381.0 126.8 -999.25 -999.25 -999.25 -999.25 -999.25 -999.25 -999.25 -999.25 -999.25 0 0 0 40 0 0 0 60 0
 15382.0 130.1 -999.25 -999.25 -999.25 -999.25 -999.25 -999.25 -999.25 -999.25 -999.25 0 0 0 40 0 0 0 60 0
 15384.0 129.8 -999.25 -999.25 -999.25 -999.25 -999.25 -999.25 -999.25 -999.25 -999.25 0 0 0 40 0 0 0 60 0
 15385.0 129.8 -999.25 -999.25 -999.25 -999.25 -999.25 -999.25 -999.25 -999.25 -999.25 0 0 0 40 0 0 0 60 0
 15386.0 129.1 -999.25 -999.25 -999.25 -999.25 -999.25 -999.25 -999.25 -999.25 -999.25 0 0 0 40 0 0 0 60 0
 15387.0 127.8 -999.25 -999.25 -999.25 -999.25 -999.25 -999.25 -999.25 -999.25 -999.25 0 0 0 40 0 0 0 60 0
 15388.0 128.3 -999.25 -999.25 -999.25 -999.25 -999.25 -999.25 -999.25 -999.25 -999.25 0 0 0 40 0 0 0 60 0
 15389.0 128.3 -999.25 -999.25 -999.25 -999.25 -999.25 -999.25 -999.25 -999.25 -999.25 0 0 0 40 0 0 0 60 0
 15390.0 127.5 -999.25 -999.25 -999.25 -999.25 -999.25 -999.25 -999.25 -999.25 -999.25 0 0 0 40 0 0 0 60 0
 15391.0 126.5 -999.25 -999.25 -999.25 -999.25 -999.25 -999.25 -999.25 -999.25 -999.25 0 0 0 40 0 0 0 60 0
 15392.0 126.5 -999.25 -999.25 -999.25 -999.25 -999.25 -999.25 -999.25 -999.25 -999.25 0 0 0 40 0 0 0 60 0
 15393.0 126.8 -999.25 -999.25 -999.25 -999.25 -999.25 -999.25 -999.25 -999.25 -999.25 0 0 0 40 0 0 0 60 0
 15394.0 40.2 -999.25 -999.25 -999.25 -999.25 -999.25 -999.25 -999.25 -999.25 -999.25 0 0 0 40 0 0 0 60 0
 15395.0 40.9 -999.25 -999.25 -999.25 -999.25 -999.25 -999.25 -999.25 -999.25 -999.25 0 0 0 40 0 0 0 60 0
 15396.0 41.8 -999.25 -999.25 -999.25 -999.25 -999.25 -999.25 -999.25 -999.25 -999.25 0 0 0 40 0 0 0 60 0
 15397.0 42.7 -999.25 -999.25 -999.25 -999.25 -999.25 -999.25 -999.25 -999.25 -999.25 0 0 0 40 0 0 0 60 0
 15398.0 42.7 -999.25 -999.25 -999.25 -999.25 -999.25 -999.25 -999.25 -999.25 -999.25 0 0 0 40 0 0 0 60 0
 15399.0 43.4 -999.25 -999.25 -999.25 -999.25 -999.25 -999.25 -999.25 -999.25 -999.25 0 0 0 40 0 0 0 60 0
 15400.0 183.2 -999.25 -999.25 -999.25 -999.25 -999.25 -999.25 -999.25 -999.25 -999.25 0 0 0 40 0 0 0 60 0
 15401.0 185.0 -999.25 -999.25 -999.25 -999.25 -999.25 -999.25 -999.25 -999.25 -999.25 0 0 0 40 0 0 0 60 0
 15402.0 185.7 -999.25 -999.25 -999.25 -999.25 -999.25 -999.25 -999.25 -999.25 -999.25 0 0 0 40 0 0 0 60 0
 15403.0 185.4 -999.25 -999.25 -999.25 -999.25 -999.25 -999.25 -999.25 -999.25 -999.25 0 0 0 40 0 0 0 60 0
 15404.0 185.4 -999.25 -999.25 -999.25 -999.25 -999.25 -999.25 -999.25 -999.25 -999.25 0 0 0 40 0 0 0 60 0
 15405.0 180.1 -999.25 -999.25 -999.25 -999.25 -999.25 -999.25 -999.25 -999.25 -999.25 0 0 0 40 0 0 0 60 0
 15406.0 179.1 -999.25 -999.25 -999.25 -999.25 -999.25 -999.25 -999.25 -999.25 -999.25 0 0 0 40 0 0 0 60 0
 15408.0 184.1 -999.25 -999.25 -999.25 -999.25 -999.25 -999.25 -999.25 -999.25 -999.25 0 0 0 40 0 0 0 60 0
 15409.0 189.9 -999.25 -999.25 -999.25 -999.25 -999.25 -999.25 -999.25 -999.25 -999.25 0 0 0 40 0 0 0 60 0
 15410.0 189.9 -999.25 -999.25 -999.25 -999.25 -999.25 -999.25 -999.25 -999.25 -999.25 0 0 0 40 0 0 0 60 0
 15411.0 187.2 -999.25 -999.25 -999.25 -999.25 -999.25 -999.25 -999.25 -999.25 -999.25 0 0 0 40 0 0 0 60 0
 15413.0 178.5 -999.25 -999.25 -999.25 -999.25 -999.25 -999.25 -999.25 -999.25 -999.25 0 0 0 40 0 0 0 60 0
 15414.0 171.7 -999.25 -999.25 -999.25 -999.25 -999.25 -999.25 -999.25 -999.25 -999.25 0 0 0 40 0 0 0 60 0
 15415.0 169.7 -999.25 -999.25 -999.25 -999.25 -999.25 -999.25 -999.25 -999.25 -999.25 0 0 0 40 0 0 0 60 0
 15416.0 170.0 -999.25 -999.25 -999.25 -999.25 -999.25 -999.25 -999.25 -999.25 -999.25 0 0 0 40 0 0 0 60 0
 15417.0 170.0 -999.25 -999.25 -999.25 -999.25 -999.25 -999.25 -999.25 -999.25 -999.25 0 0 0 40 0 0 0 60 0
 15418.0 179.1 -999.25 -999.25 -999.25 -999.25 -999.25 -999.25 -999.25 -999.25 -999.25 0 0 0 40 0 0 0 60 0
 15419.0 183.1 -999.25 -999.25 -999.25 -999.25 -999.25 -999.25 -999.25 -999.25 -999.25 0 0 0 40 0 0 0 60 0
