~Version ---------------------------------------------------
VERS.   2.0 : CWLS log ASCII Standard -VERSION 2.0
WRAP.    NO : One line per depth step
DLM . SPACE : Column Data Section Delimiter
~Well ------------------------------------------------------
STRT.F                   0.0 : START DEPTH
STOP.F               15441.0 : STOP DEPTH
STEP.F                   1.0 : STEP
NULL.                -999.25 : NULL VALUE
COMP.                Pioneer : COMPANY
WELL.       MCCLINTIC 12C 3H : WELL
FLD . Spraberry (trend area) : FIELD
LOC .            Midland Co. : LOCATION
STAT.                  Texas : STATE
CTRY.            Midland Co. : COUNTRY
SRVC.    StrataID Technology : SERVICE COMPANY
DATE.    2022-09-16 14:07:04 : DATE
UWI .                    705 : UNIQUE WELL ID
~Curve Information -----------------------------------------
DMEA     .F     : Depth Hole (meas)
ROPA     .F/HR  : Rate of Penetration (avg)
GASA     .%     : Gas (avg)
METH     .PPM   : Methane (C1)
ETH      .PPM   : Ethane (C2)
PRP      .PPM   : Propane (C3)
IBUT     .PPM   : Iso-Butane (IC4)
NBUT     .PPM   : Nor-Butane (NC4)
IPEN     .PPM   : Iso-Pentane (IC5)
NPEN     .PPM   : Nor-Pentane (NC5)
MG1      .API   : Gamma Ray 1 reading
Anhydrite.----  : N/A
Ash      .----  : N/A
Cement   .----  : N/A
Limestone.----  : N/A
NoSample .----  : N/A
Salt     .----  : N/A
Sand     .----  : N/A
Shale    .----  : N/A
ShaleRed .----  : N/A
~Params ----------------------------------------------------
~Other -----------------------------------------------------
StrataID LAS Version 2.0 export file
~ASCII DMEA ROPA GASA METH ETH PRP IBUT NBUT IPEN NPEN MG1 Anhydrite Ash Cement Limestone NoSample Salt Sand Shale ShaleRed 
# ...
 13496.0 40.9 -999.25 -999.25 -999.25 -999.25 -999.25 -999.25 -999.25 -999.25 107.93 0 0 0 30 0 0 0 70 0
 13497.0 41.3 -999.25 -999.25 -999.25 -999.25 -999.25 -999.25 -999.25 -999.25 107.67 0 0 0 30 0 0 0 70 0
 13498.0 42.1 -999.25 -999.25 -999.25 -999.25 -999.25 -999.25 -999.25 -999.25 107.4 0 0 0 30 0 0 0 70 0
 13499.0 205.6 -999.25 -999.25 -999.25 -999.25 -999.25 -999.25 -999.25 -999.25 113.66 0 0 0 30 0 0 0 70 0
 13500.0 205.9 -999.25 -999.25 -999.25 -999.25 -999.25 -999.25 -999.25 -999.25 119.93 0 0 0 30 0 0 0 70 0
 13501.0 206.0 -999.25 -999.25 -999.25 -999.25 -999.25 -999.25 -999.25 -999.25 121.26 0 0 0 30 0 0 0 70 0
 13502.0 206.8 -999.25 -999.25 -999.25 -999.25 -999.25 -999.25 -999.25 -999.25 122.59 0 0 0 30 0 0 0 70 0
 13503.0 208.5 -999.25 -999.25 -999.25 -999.25 -999.25 -999.25 -999.25 -999.25 122.72 0 0 0 30 0 0 0 70 0
 13504.0 206.1 -999.25 -999.25 -999.25 -999.25 -999.25 -999.25 -999.25 -999.25 122.86 0 0 0 30 0 0 0 70 0
 13505.0 206.1 -999.25 -999.25 -999.25 -999.25 -999.25 -999.25 -999.25 -999.25 127.25 0 0 0 30 0 0 0 70 0
 13507.0 205.5 -999.25 -999.25 -999.25 -999.25 -999.25 -999.25 -999.25 -999.25 135.78 0 0 0 30 0 0 0 70 0
 13509.0 210.3 -999.25 -999.25 -999.25 -999.25 -999.25 -999.25 -999.25 -999.25 140.45 0 0 0 30 0 0 0 70 0
 13510.0 212.0 -999.25 -999.25 -999.25 -999.25 -999.25 -999.25 -999.25 -999.25 139.65 0 0 0 30 0 0 0 70 0
 13511.0 212.0 -999.25 -999.25 -999.25 -999.25 -999.25 -999.25 -999.25 -999.25 136.18 0 0 0 30 0 0 0 70 0
 13512.0 158.1 -999.25 -999.25 -999.25 -999.25 -999.25 -999.25 -999.25 -999.25 132.72 0 0 0 30 0 0 0 70 0
 13513.0 133.8 -999.25 -999.25 -999.25 -999.25 -999.25 -999.25 -999.25 -999.25 119.66 0 0 0 30 0 0 0 70 0
 13515.0 119.0 -999.25 -999.25 -999.25 -999.25 -999.25 -999.25 -999.25 -999.25 123.39 0 0 0 30 0 0 0 70 0
 13517.0 140.8 -999.25 -999.25 -999.25 -999.25 -999.25 -999.25 -999.25 -999.25 125.52 0 0 0 30 0 0 0 70 0
 13519.0 98.9 -999.25 -999.25 -999.25 -999.25 -999.25 -999.25 -999.25 -999.25 123.12 0 0 0 30 0 0 0 70 0
 13521.0 109.2 -999.25 -999.25 -999.25 -999.25 -999.25 -999.25 -999.25 -999.25 126.19 0 0 0 30 0 0 0 70 0
 13522.0 111.9 -999.25 -999.25 -999.25 -999.25 -999.25 -999.25 -999.25 -999.25 126.32 0 0 0 30 0 0 0 70 0
 13523.0 198.3 -999.25 -999.25 -999.25 -999.25 -999.25 -999.25 -999.25 -999.25 114.6 0 0 0 30 0 0 0 70 0
 13524.0 198.3 -999.25 -999.25 -999.25 -999.25 -999.25 -999.25 -999.25 -999.25 104.73 0 0 0 30 0 0 0 70 0
 13525.0 194.6 -999.25 -999.25 -999.25 -999.25 -999.25 -999.25 -999.25 -999.25 111.93 0 0 0 30 0 0 0 70 0
 13526.0 195.3 -999.25 -999.25 -999.25 -999.25 -999.25 -999.25 -999.25 -999.25 117.93 0 0 0 30 0 0 0 70 0
 13527.0 196.4 -999.25 -999.25 -999.25 -999.25 -999.25 -999.25 -999.25 -999.25 123.92 0 0 0 30 0 0 0 70 0
 13528.0 204.8 -999.25 -999.25 -999.25 -999.25 -999.25 -999.25 -999.25 -999.25 116.73 0 0 0 30 0 0 0 70 0
 13529.0 204.8 -999.25 -999.25 -999.25 -999.25 -999.25 -999.25 -999.25 -999.25 109.53 0 0 0 30 0 0 0 70 0
 13530.0 182.5 -999.25 -999.25 -999.25 -999.25 -999.25 -999.25 -999.25 -999.25 103.93 0 0 0 30 0 0 0 70 0
 13531.0 182.5 -999.25 -999.25 -999.25 -999.25 -999.25 -999.25 -999.25 -999.25 98.34 0 0 0 30 0 0 0 70 0
 13532.0 156.0 -999.25 -999.25 -999.25 -999.25 -999.25 -999.25 -999.25 -999.25 87.68 0 0 0 30 0 0 0 70 0
 13533.0 156.0 -999.25 -999.25 -999.25 -999.25 -999.25 -999.25 -999.25 -999.25 58.63 0 0 0 30 0 0 0 70 0
 13534.0 138.7 -999.25 -999.25 -999.25 -999.25 -999.25 -999.25 -999.25 -999.25 55.83 0 0 0 30 0 0 0 70 0
 13535.0 134.6 -999.25 -999.25 -999.25 -999.25 -999.25 -999.25 -999.25 -999.25 53.03 0 0 0 30 0 0 0 70 0
 13536.0 132.2 -999.25 -999.25 -999.25 -999.25 -999.25 -999.25 -999.25 -999.25 56.85 0 0 0 30 0 0 0 70 0
 13537.0 132.2 -999.25 -999.25 -999.25 -999.25 -999.25 -999.25 -999.25 -999.25 60.67 0 0 0 30 0 0 0 70 0
 13538.0 149.2 -999.25 -999.25 -999.25 -999.25 -999.25 -999.25 -999.25 -999.25 64.49 0 0 0 30 0 0 0 70 0
 13539.0 156.7 -999.25 -999.25 -999.25 -999.25 -999.25 -999.25 -999.25 -999.25 68.76 0 0 0 30 0 0 0 70 0
 13540.0 156.7 -999.25 -999.25 -999.25 -999.25 -999.25 -999.25 -999.25 -999.25 73.02 0 0 0 30 0 0 0 70 0
 13541.0 186.8 -999.25 -999.25 -999.25 -999.25 -999.25 -999.25 -999.25 -999.25 73.02 0 0 0 30 0 0 0 70 0
 13542.0 186.8 -999.25 -999.25 -999.25 -999.25 -999.25 -999.25 -999.25 -999.25 73.02 0 0 0 30 0 0 0 70 0
 13543.0 191.2 -999.25 -999.25 -999.25 -999.25 -999.25 -999.25 -999.25 -999.25 71.29 0 0 0 30 0 0 0 70 0
 13545.0 202.1 -999.25 -999.25 -999.25 -999.25 -999.25 -999.25 -999.25 -999.25 69.65 0 0 0 30 0 0 0 70 0
 13547.0 200.0 -999.25 -999.25 -999.25 -999.25 -999.25 -999.25 -999.25 -999.25 69.82 0 0 0 30 0 0 0 70 0
 13548.0 199.7 -999.25 -999.25 -999.25 -999.25 -999.25 -999.25 -999.25 -999.25 69.91 0 0 0 30 0 0 0 70 0
 13550.0 200.1 -999.25 -999.25 -999.25 -999.25 -999.25 -999.25 -999.25 -999.25 70.09 0 0 0 30 0 0 0 70 0
 13552.0 183.4 -999.25 -999.25 -999.25 -999.25 -999.25 -999.25 -999.25 -999.25 70.27 0 0 0 30 0 0 0 70 0
 13554.0 172.3 -999.25 -999.25 -999.25 -999.25 -999.25 -999.25 -999.25 -999.25 67.02 0 0 0 30 0 0 0 70 0
 13555.0 157.0 -999.25 -999.25 -999.25 -999.25 -999.25 -999.25 -999.25 -999.25 63.69 0 0 0 30 0 0 0 70 0
 13556.0 153.0 -999.25 -999.25 -999.25 -999.25 -999.25 -999.25 -999.25 -999.25 63.43 0 0 0 30 0 0 0 70 0
 13557.0 147.8 -999.25 -999.25 -999.25 -999.25 -999.25 -999.25 -999.25 -999.25 63.16 0 0 0 30 0 0 0 70 0
 13558.0 149.0 -999.25 -999.25 -999.25 -999.25 -999.25 -999.25 -999.25 -999.25 61.56 0 0 0 30 0 0 0 70 0
 13559.0 147.9 -999.25 -999.25 -999.25 -999.25 -999.25 -999.25 -999.25 -999.25 59.96 0 0 0 30 0 0 0 70 0
 13561.0 156.7 -999.25 -999.25 -999.25 -999.25 -999.25 -999.25 -999.25 -999.25 61.43 0 0 0 30 0 0 0 70 0
 13562.0 165.1 -999.25 -999.25 -999.25 -999.25 -999.25 -999.25 -999.25 -999.25 59.7 0 0 0 30 0 0 0 70 0
 13563.0 164.8 -999.25 -999.25 -999.25 -999.25 -999.25 -999.25 -999.25 -999.25 54.37 0 0 0 30 0 0 0 70 0
 13564.0 164.8 -999.25 -999.25 -999.25 -999.25 -999.25 -999.25 -999.25 -999.25 49.04 0 0 0 30 0 0 0 70 0
 13565.0 168.7 -999.25 -999.25 -999.25 -999.25 -999.25 -999.25 -999.25 -999.25 48.77 0 0 0 30 0 0 0 70 0
 13566.0 165.8 -999.25 -999.25 -999.25 -999.25 -999.25 -999.25 -999.25 -999.25 49.17 0 0 0 30 0 0 0 70 0
 13567.0 153.5 -999.25 -999.25 -999.25 -999.25 -999.25 -999.25 -999.25 -999.25 49.57 0 0 0 30 0 0 0 70 0
 13568.0 158.9 -999.25 -999.25 -999.25 -999.25 -999.25 -999.25 -999.25 -999.25 55.97 0 0 0 30 0 0 0 70 0
 13570.0 164.2 -999.25 -999.25 -999.25 -999.25 -999.25 -999.25 -999.25 -999.25 62.09 0 0 0 30 0 0 0 70 0
 13571.0 157.8 -999.25 -999.25 -999.25 -999.25 -999.25 -999.25 -999.25 -999.25 61.83 0 0 0 30 0 0 0 70 0
 13572.0 165.5 -999.25 -999.25 -999.25 -999.25 -999.25 -999.25 -999.25 -999.25 60.76 0 0 0 30 0 0 0 70 0
 13573.0 168.1 -999.25 -999.25 -999.25 -999.25 -999.25 -999.25 -999.25 -999.25 59.7 0 0 0 30 0 0 0 70 0
 13575.0 168.6 -999.25 -999.25 -999.25 -999.25 -999.25 -999.25 -999.25 -999.25 50.37 0 0 0 30 0 0 0 70 0
 13576.0 179.2 -999.25 -999.25 -999.25 -999.25 -999.25 -999.25 -999.25 -999.25 52.1 0 0 0 30 0 0 0 70 0
 13577.0 175.1 -999.25 -999.25 -999.25 -999.25 -999.25 -999.25 -999.25 -999.25 53.83 0 0 0 30 0 0 0 70 0
 13578.0 171.3 -999.25 -999.25 -999.25 -999.25 -999.25 -999.25 -999.25 -999.25 52.77 0 0 0 30 0 0 0 70 0
 13582.0 190.6 -999.25 -999.25 -999.25 -999.25 -999.25 -999.25 -999.25 -999.25 69.42 0 0 0 30 0 0 0 70 0
 13583.0 201.3 -999.25 -999.25 -999.25 -999.25 -999.25 -999.25 -999.25 -999.25 76.75 0 0 0 30 0 0 0 70 0
 13584.0 208.0 -999.25 -999.25 -999.25 -999.25 -999.25 -999.25 -999.25 -999.25 81.68 0 0 0 30 0 0 0 70 0
 13585.0 208.9 -999.25 -999.25 -999.25 -999.25 -999.25 -999.25 -999.25 -999.25 86.61 0 0 0 30 0 0 0 70 0
 13586.0 206.5 -999.25 -999.25 -999.25 -999.25 -999.25 -999.25 -999.25 -999.25 89.41 0 0 0 30 0 0 0 70 0
 13587.0 204.9 -999.25 -999.25 -999.25 -999.25 -999.25 -999.25 -999.25 -999.25 92.21 0 0 0 30 0 0 0 70 0
 13588.0 204.9 -999.25 -999.25 -999.25 -999.25 -999.25 -999.25 -999.25 -999.25 92.61 0 0 0 30 0 0 0 70 0
