~Version ---------------------------------------------------
VERS.   2.0 : CWLS log ASCII Standard -VERSION 2.0
WRAP.    NO : One line per depth step
DLM . SPACE : Column Data Section Delimiter
~Well ------------------------------------------------------
STRT.F                   0.0 : START DEPTH
STOP.F               15441.0 : STOP DEPTH
STEP.F                   1.0 : STEP
NULL.                -999.25 : NULL VALUE
COMP.                Pioneer : COMPANY
WELL.       MCCLINTIC 12C 3H : WELL
FLD . Spraberry (trend area) : FIELD
LOC .            Midland Co. : LOCATION
STAT.                  Texas : STATE
CTRY.            Midland Co. : COUNTRY
SRVC.    StrataID Technology : SERVICE COMPANY
DATE.    2022-09-16 14:07:04 : DATE
UWI .                    705 : UNIQUE WELL ID
~Curve Information -----------------------------------------
DMEA     .F     : Depth Hole (meas)
ROPA     .F/HR  : Rate of Penetration (avg)
GASA     .%     : Gas (avg)
METH     .PPM   : Methane (C1)
ETH      .PPM   : Ethane (C2)
PRP      .PPM   : Propane (C3)
IBUT     .PPM   : Iso-Butane (IC4)
NBUT     .PPM   : Nor-Butane (NC4)
IPEN     .PPM   : Iso-Pentane (IC5)
NPEN     .PPM   : Nor-Pentane (NC5)
MG1      .API   : Gamma Ray 1 reading
Anhydrite.----  : N/A
Ash      .----  : N/A
Cement   .----  : N/A
Limestone.----  : N/A
NoSample .----  : N/A
Salt     .----  : N/A
Sand     .----  : N/A
Shale    .----  : N/A
ShaleRed .----  : N/A
~Params ----------------------------------------------------
~Other -----------------------------------------------------
StrataID LAS Version 2.0 export file
~ASCII DMEA ROPA GASA METH ETH PRP IBUT NBUT IPEN NPEN MG1 Anhydrite Ash Cement Limestone NoSample Salt Sand Shale ShaleRed 
# ...
 10495.0 208.9 675.0 42458.0 6801.0 3419.0 13.0 294.0 0.0 0.0 97.81 0 0 0 30 0 0 0 70 0
 10496.0 206.5 685.0 42804.0 6856.0 3447.5 13.0 296.5 0.0 0.0 97.89 0 0 0 30 0 0 0 70 0
 10498.0 204.0 603.0 38370.0 6146.0 3090.0 13.0 266.0 0.0 0.0 98.07 0 0 0 30 0 0 0 70 0
 10500.0 210.2 584.0 35198.0 6195.0 3299.0 13.0 413.0 0.0 0.0 97.01 0 0 0 30 0 0 0 70 0
 10502.0 214.6 563.0 34722.0 6112.0 3255.0 13.0 408.0 0.0 0.0 89.01 0 0 0 30 0 0 0 70 0
 10503.0 220.3 537.0 32700.0 5756.0 3065.0 12.0 384.0 0.0 0.0 90.74 0 0 0 30 0 0 0 70 0
 10504.0 223.4 527.0 32463.0 5714.0 3043.0 12.0 381.0 0.0 0.0 92.48 0 0 0 30 0 0 0 70 0
 10505.0 225.7 524.0 32165.0 5662.0 3015.0 12.0 378.0 0.0 0.0 91.41 0 0 0 30 0 0 0 70 0
 10506.0 227.6 522.0 35114.0 5436.0 2525.0 0.0 227.0 0.0 0.0 90.34 0 0 0 30 0 0 0 70 0
 10507.0 230.1 527.0 34940.0 5409.0 2512.0 0.0 225.0 0.0 0.0 83.41 0 0 0 30 0 0 0 70 0
 10508.0 230.1 520.0 34747.0 5379.0 2498.0 0.0 224.0 0.0 0.0 85.28 0 0 0 30 0 0 0 70 0
 10509.0 227.6 515.0 33522.0 5189.0 2410.0 0.0 216.0 0.0 0.0 87.15 0 0 0 30 0 0 0 70 0
 10510.0 228.4 473.0 32168.0 4980.0 2313.0 0.0 207.0 0.0 0.0 84.21 0 0 0 30 0 0 0 70 0
 10511.0 228.4 428.0 31717.0 4910.0 2280.5 0.0 204.5 0.0 0.0 81.28 0 0 0 30 0 0 0 70 0
 10512.0 228.4 386.0 29073.5 4500.5 2090.0 0.0 187.5 0.0 0.0 85.95 0 0 0 30 0 0 0 70 0
 10513.0 229.1 375.0 25270.0 3912.0 1817.0 0.0 163.0 0.0 0.0 90.61 0 0 0 30 0 0 0 70 0
 10514.0 225.5 374.0 27047.0 3586.0 1331.0 0.0 70.0 0.0 0.0 83.41 0 0 0 30 0 0 0 70 0
 10515.0 229.2 373.0 27082.0 3590.5 1333.0 0.0 70.5 0.0 0.0 83.53 0 0 0 30 0 0 0 70 0
 10516.0 229.2 382.0 26836.0 3558.0 1321.0 0.0 70.0 0.0 0.0 83.64 0 0 0 30 0 0 0 70 0
 10521.0 240.4 357.0 23773.0 2867.0 960.0 0.0 7.0 0.0 0.0 84.19 0 0 0 30 0 0 0 70 0
 10522.0 238.6 343.0 26182.0 3157.0 1057.0 0.0 7.0 0.0 0.0 84.3 0 0 0 30 0 0 0 70 0
 10523.0 236.8 362.0 26475.0 3192.0 1069.0 0.0 7.0 0.0 0.0 84.41 0 0 0 30 0 0 0 70 0
 10524.0 235.0 340.0 25302.0 3051.0 1021.0 0.0 7.0 0.0 0.0 84.52 0 0 0 30 0 0 0 70 0
 10525.0 232.7 326.0 25192.0 3037.5 1016.5 0.0 7.0 0.0 0.0 84.64 0 0 0 30 0 0 0 70 0
 10526.0 232.7 332.0 24715.0 2980.0 998.0 0.0 7.0 0.0 0.0 84.75 0 0 0 30 0 0 0 70 0
 10528.0 232.3 320.0 23468.0 2830.0 947.0 0.0 6.0 0.0 0.0 94.87 0 0 0 30 0 0 0 70 0
 10529.0 235.3 311.0 23860.0 2756.0 975.0 0.0 0.0 0.0 0.0 96.21 0 0 0 30 0 0 0 70 0
 10531.0 243.1 330.0 25522.5 2948.0 1042.5 0.0 0.0 0.0 0.0 98.87 0 0 0 30 0 0 0 70 0
 10533.0 238.2 372.0 28477.5 3289.5 1163.5 0.0 0.0 0.0 0.0 101.8 0 0 0 30 0 0 0 70 0
 10534.0 237.7 382.0 29918.0 3455.5 1222.0 0.0 0.0 0.0 0.0 100.34 0 0 0 30 0 0 0 70 0
 10535.0 236.3 424.0 30915.0 3571.0 1263.5 0.0 0.0 0.0 0.0 98.87 0 0 0 30 0 0 0 70 0
 10536.0 236.3 442.0 32430.0 3746.0 1325.0 0.0 0.0 0.0 0.0 97.67 0 0 0 30 0 0 0 70 0
 10538.0 228.3 -999.25 -999.25 -999.25 -999.25 -999.25 -999.25 -999.25 -999.25 93.94 0 0 0 30 0 0 0 70 0
 10539.0 228.3 176.0 11916.0 1693.0 719.0 0.0 34.0 0.0 0.0 91.41 0 0 0 30 0 0 0 70 0
 10542.0 234.8 148.0 9928.0 1490.0 700.0 0.0 22.0 0.0 0.0 97.01 0 0 0 30 0 0 0 70 0
 10543.0 222.9 164.0 17226.0 2585.5 1214.5 0.0 38.5 0.0 0.0 95.94 0 0 0 30 0 0 0 70 0
 10544.0 222.9 297.0 22157.0 3325.0 1563.0 0.0 50.0 0.0 0.0 94.87 0 0 0 30 0 0 0 70 0
 10546.0 228.7 410.0 28206.0 4233.0 1989.0 0.0 63.0 0.0 0.0 96.74 0 0 0 30 0 0 0 70 0
 10547.0 221.8 428.0 28266.0 4589.0 2718.0 0.0 134.0 0.0 0.0 95.67 0 0 0 30 0 0 0 70 0
 10548.0 221.8 446.0 28606.0 4645.0 2750.0 0.0 134.0 0.0 0.0 94.61 0 0 0 30 0 0 0 70 0
 10549.0 220.2 476.0 29505.0 4791.0 2837.0 0.0 134.0 0.0 0.0 93.54 0 0 0 30 0 0 0 70 0
 10550.0 220.2 472.0 29505.0 4791.0 2837.0 0.0 134.0 0.0 0.0 98.87 0 0 0 30 0 0 0 70 0
 10551.0 217.4 484.0 29350.0 4765.5 2822.0 0.0 134.0 0.0 0.0 96.21 0 0 0 30 0 0 0 70 0
 10552.0 218.8 485.0 31706.0 5148.0 3048.5 0.0 134.0 0.0 0.0 93.54 0 0 0 30 0 0 0 70 0
 10555.0 220.8 589.0 33317.5 5409.5 3203.5 0.0 134.0 0.0 0.0 86.35 0 0 0 30 0 0 0 70 0
 10556.0 216.8 605.0 39584.0 5970.0 2743.0 0.0 186.0 0.0 0.0 84.35 0 0 0 30 0 0 0 70 0
 10558.0 188.8 561.0 38079.0 5743.0 2638.0 0.0 179.0 0.0 0.0 80.75 0 0 0 30 0 0 0 70 0
 10559.0 53.8 507.0 33491.0 5183.0 2471.0 0.0 232.0 0.0 0.0 79.15 0 0 0 30 0 0 0 70 0
 10560.0 53.8 519.0 33812.0 5232.0 2494.0 0.0 234.0 0.0 0.0 79.68 0 0 0 30 0 0 0 70 0
 10562.0 55.2 560.0 35545.0 5500.0 2622.0 0.0 246.0 0.0 0.0 80.22 0 0 0 30 0 0 0 70 0
 10563.0 55.2 559.0 35865.0 5550.0 2646.0 0.0 248.0 0.0 0.0 80.22 0 0 0 30 0 0 0 70 0
 10564.0 223.8 547.0 36418.0 5642.0 2755.0 0.0 232.0 0.0 0.0 79.95 0 0 0 30 0 0 0 70 0
 10571.0 237.7 577.0 37250.0 5771.0 2818.0 0.0 237.0 0.0 0.0 87.68 0 0 0 30 0 0 0 70 0
 10572.0 235.9 548.0 34162.0 5716.0 2726.0 0.0 255.0 0.0 0.0 83.15 0 0 0 30 0 0 0 70 0
 10573.0 234.6 527.0 33975.0 5685.0 2712.0 0.0 254.0 0.0 0.0 78.62 0 0 0 30 0 0 0 70 0
 10574.0 233.2 553.0 34037.0 5695.0 2717.0 0.0 254.0 0.0 0.0 79.28 0 0 0 30 0 0 0 70 0
 10575.0 231.8 552.0 34037.0 5695.0 2717.0 0.0 254.0 0.0 0.0 79.95 0 0 0 30 0 0 0 70 0
 10576.0 230.9 537.0 34723.0 5810.0 2771.0 0.0 260.0 0.0 0.0 83.68 0 0 0 30 0 0 0 70 0
 10577.0 230.0 545.0 34848.0 5831.0 2781.0 0.0 260.0 0.0 0.0 87.41 0 0 0 30 0 0 0 70 0
 10578.0 229.2 564.0 34158.5 5589.0 2748.0 0.0 266.0 0.0 0.0 88.12 0 0 0 30 0 0 0 70 0
 10579.0 227.8 581.0 36428.0 5808.0 2956.0 0.0 296.0 0.0 0.0 88.83 0 0 0 30 0 0 0 70 0
 10580.0 227.4 578.0 36240.0 5778.0 2941.0 0.0 294.0 0.0 0.0 89.54 0 0 0 30 0 0 0 70 0
 10581.0 226.5 553.0 35676.0 5688.0 2895.0 0.0 290.0 0.0 0.0 90.88 0 0 0 30 0 0 0 70 0
 10582.0 226.1 552.0 35738.0 5698.0 2900.0 0.0 290.0 0.0 0.0 92.21 0 0 0 30 0 0 0 70 0
 10583.0 226.1 528.0 34735.0 5538.0 2819.0 0.0 282.0 0.0 0.0 98.07 0 0 0 30 0 0 0 70 0
 10584.0 226.1 475.0 31851.0 5078.0 2585.0 0.0 258.0 0.0 0.0 96.87 0 0 0 30 0 0 0 70 0
 10585.0 221.5 433.0 28214.0 4498.0 2289.0 0.0 229.0 0.0 0.0 95.67 0 0 0 30 0 0 0 70 0
 10586.0 217.5 453.0 28977.5 4713.0 2481.0 0.0 262.0 0.0 0.0 96.34 0 0 0 30 0 0 0 70 0
 10587.0 212.9 474.0 30306.0 4929.0 2595.0 0.0 274.0 0.0 0.0 97.01 0 0 0 30 0 0 0 70 0
 10588.0 207.6 466.0 29441.0 4788.0 2520.5 0.0 266.5 0.0 0.0 95.5 0 0 0 30 0 0 0 70 0
 10589.0 202.9 477.0 30584.0 4974.0 2619.0 0.0 277.0 0.0 0.0 93.99 0 0 0 30 0 0 0 70 0
 10590.0 202.9 499.0 31943.0 5195.0 2735.0 0.0 289.0 0.0 0.0 92.48 0 0 0 30 0 0 0 70 0
 10592.0 208.5 472.0 29847.0 5122.0 2607.0 0.0 246.0 0.0 0.0 97.81 0 0 0 30 0 0 0 70 0
 10595.0 211.3 486.0 30609.5 5253.5 2673.5 0.0 252.0 0.0 0.0 101.27 0 0 0 30 0 0 0 70 0
 10597.0 215.1 484.0 29541.0 5070.0 2580.0 0.0 243.0 0.0 0.0 94.87 0 0 0 30 0 0 0 70 0
 10599.0 217.7 479.0 28897.0 4961.0 2656.0 0.0 277.0 0.0 0.0 88.21 0 0 0 30 0 0 0 70 0
 10600.0 216.9 478.0 28837.0 4950.0 2650.0 0.0 277.0 0.0 0.0 89.54 0 0 0 40 0 0 0 60 0
 10602.0 214.8 455.0 28475.0 4888.0 2617.0 0.0 273.0 0.0 0.0 91.68 0 0 0 40 0 0 0 60 0
 10605.0 213.3 439.0 27449.0 4712.0 2523.0 0.0 263.0 0.0 0.0 96.74 0 0 0 40 0 0 0 60 0
 10606.0 213.3 445.0 28363.0 4738.0 2440.0 0.0 234.0 0.0 0.0 97.81 0 0 0 40 0 0 0 60 0
 10607.0 206.7 463.0 28486.0 4759.0 2451.0 0.0 235.0 0.0 0.0 95.81 0 0 0 40 0 0 0 60 0
 10608.0 205.2 450.0 27686.0 4625.0 2382.0 0.0 228.0 0.0 0.0 93.81 0 0 0 40 0 0 0 60 0
 10609.0 203.1 429.0 27009.0 4512.0 2324.0 0.0 223.0 0.0 0.0 84.75 0 0 0 40 0 0 0 60 0
 10610.0 199.2 402.0 25471.0 4255.0 2191.0 0.0 210.0 0.0 0.0 85.01 0 0 0 40 0 0 0 60 0
 10611.0 201.7 371.0 25471.0 4255.0 2191.0 0.0 210.0 0.0 0.0 85.28 0 0 0 40 0 0 0 60 0
 10612.0 201.7 346.0 21770.0 3399.0 1798.0 0.0 158.0 0.0 0.0 85.55 0 0 0 40 0 0 0 60 0
 10613.0 198.9 343.0 21581.0 3370.0 1782.0 0.0 157.0 0.0 0.0 85.81 0 0 0 40 0 0 0 60 0
 10614.0 200.1 327.0 21518.0 3360.0 1777.0 0.0 156.0 0.0 0.0 86.08 0 0 0 40 0 0 0 60 0
 10615.0 202.5 340.0 21392.0 3340.0 1767.0 0.0 156.0 0.0 0.0 86.35 0 0 0 40 0 0 0 60 0
 10617.0 200.9 346.0 22713.0 3547.0 1876.0 0.0 165.0 0.0 0.0 89.37 0 0 0 40 0 0 0 60 0
 10619.0 206.7 365.0 22839.0 3566.0 1886.0 0.0 166.0 0.0 0.0 94.87 0 0 0 40 0 0 0 60 0
 10620.0 202.9 351.0 23522.0 3597.0 1811.0 0.0 136.0 0.0 0.0 94.21 0 0 0 40 0 0 0 60 0
 10621.0 202.9 343.0 23138.0 3538.0 1782.0 0.0 134.0 0.0 0.0 93.54 0 0 0 40 0 0 0 60 0
