~Version ---------------------------------------------------
VERS.   2.0 : CWLS log ASCII Standard -VERSION 2.0
WRAP.    NO : One line per depth step
DLM . SPACE : Column Data Section Delimiter
~Well ------------------------------------------------------
STRT.F                   0.0 : START DEPTH
STOP.F               15441.0 : STOP DEPTH
STEP.F                   1.0 : STEP
NULL.                -999.25 : NULL VALUE
COMP.                Pioneer : COMPANY
WELL.       MCCLINTIC 12C 3H : WELL
FLD . Spraberry (trend area) : FIELD
LOC .            Midland Co. : LOCATION
STAT.                  Texas : STATE
CTRY.            Midland Co. : COUNTRY
SRVC.    StrataID Technology : SERVICE COMPANY
DATE.    2022-09-16 14:07:04 : DATE
UWI .                    705 : UNIQUE WELL ID
~Curve Information -----------------------------------------
DMEA     .F     : Depth Hole (meas)
ROPA     .F/HR  : Rate of Penetration (avg)
GASA     .%     : Gas (avg)
METH     .PPM   : Methane (C1)
ETH      .PPM   : Ethane (C2)
PRP      .PPM   : Propane (C3)
IBUT     .PPM   : Iso-Butane (IC4)
NBUT     .PPM   : Nor-Butane (NC4)
IPEN     .PPM   : Iso-Pentane (IC5)
NPEN     .PPM   : Nor-Pentane (NC5)
MG1      .API   : Gamma Ray 1 reading
Anhydrite.----  : N/A
Ash      .----  : N/A
Cement   .----  : N/A
Limestone.----  : N/A
NoSample .----  : N/A
Salt     .----  : N/A
Sand     .----  : N/A
Shale    .----  : N/A
ShaleRed .----  : N/A
~Params ----------------------------------------------------
~Other -----------------------------------------------------
StrataID LAS Version 2.0 export file
~ASCII DMEA ROPA GASA METH ETH PRP IBUT NBUT IPEN NPEN MG1 Anhydrite Ash Cement Limestone NoSample Salt Sand Shale ShaleRed 
# ...
 14951.0 209.0 -999.25 -999.25 -999.25 -999.25 -999.25 -999.25 -999.25 -999.25 -999.25 0 0 0 40 0 0 0 60 0
 14952.0 207.0 -999.25 -999.25 -999.25 -999.25 -999.25 -999.25 -999.25 -999.25 -999.25 0 0 0 40 0 0 0 60 0
 14953.0 207.9 -999.25 -999.25 -999.25 -999.25 -999.25 -999.25 -999.25 -999.25 -999.25 0 0 0 40 0 0 0 60 0
 14954.0 208.3 -999.25 -999.25 -999.25 -999.25 -999.25 -999.25 -999.25 -999.25 -999.25 0 0 0 40 0 0 0 60 0
 14955.0 205.2 -999.25 -999.25 -999.25 -999.25 -999.25 -999.25 -999.25 -999.25 -999.25 0 0 0 40 0 0 0 60 0
 14956.0 202.8 -999.25 -999.25 -999.25 -999.25 -999.25 -999.25 -999.25 -999.25 -999.25 0 0 0 40 0 0 0 60 0
 14958.0 202.9 -999.25 -999.25 -999.25 -999.25 -999.25 -999.25 -999.25 -999.25 -999.25 0 0 0 40 0 0 0 60 0
 14960.0 198.6 -999.25 -999.25 -999.25 -999.25 -999.25 -999.25 -999.25 -999.25 -999.25 0 0 0 40 0 0 0 60 0
 14961.0 186.3 -999.25 -999.25 -999.25 -999.25 -999.25 -999.25 -999.25 -999.25 -999.25 0 0 0 40 0 0 0 60 0
 14962.0 173.9 -999.25 -999.25 -999.25 -999.25 -999.25 -999.25 -999.25 -999.25 -999.25 0 0 0 40 0 0 0 60 0
 14963.0 127.8 -999.25 -999.25 -999.25 -999.25 -999.25 -999.25 -999.25 -999.25 -999.25 0 0 0 40 0 0 0 60 0
 14964.0 104.6 -999.25 -999.25 -999.25 -999.25 -999.25 -999.25 -999.25 -999.25 -999.25 0 0 0 40 0 0 0 60 0
 14965.0 92.4 -999.25 -999.25 -999.25 -999.25 -999.25 -999.25 -999.25 -999.25 -999.25 0 0 0 40 0 0 0 60 0
 14966.0 92.4 -999.25 -999.25 -999.25 -999.25 -999.25 -999.25 -999.25 -999.25 -999.25 0 0 0 40 0 0 0 60 0
 14967.0 74.6 -999.25 -999.25 -999.25 -999.25 -999.25 -999.25 -999.25 -999.25 -999.25 0 0 0 40 0 0 0 60 0
 14968.0 74.6 -999.25 -999.25 -999.25 -999.25 -999.25 -999.25 -999.25 -999.25 -999.25 0 0 0 40 0 0 0 60 0
 14971.0 156.9 -999.25 -999.25 -999.25 -999.25 -999.25 -999.25 -999.25 -999.25 -999.25 0 0 0 40 0 0 0 60 0
 14972.0 207.5 -999.25 -999.25 -999.25 -999.25 -999.25 -999.25 -999.25 -999.25 -999.25 0 0 0 40 0 0 0 60 0
 14973.0 209.6 -999.25 -999.25 -999.25 -999.25 -999.25 -999.25 -999.25 -999.25 -999.25 0 0 0 40 0 0 0 60 0
 14974.0 208.0 -999.25 -999.25 -999.25 -999.25 -999.25 -999.25 -999.25 -999.25 -999.25 0 0 0 40 0 0 0 60 0
 14975.0 206.0 -999.25 -999.25 -999.25 -999.25 -999.25 -999.25 -999.25 -999.25 -999.25 0 0 0 40 0 0 0 60 0
 14976.0 204.4 -999.25 -999.25 -999.25 -999.25 -999.25 -999.25 -999.25 -999.25 -999.25 0 0 0 40 0 0 0 60 0
 14977.0 202.8 -999.25 -999.25 -999.25 -999.25 -999.25 -999.25 -999.25 -999.25 -999.25 0 0 0 40 0 0 0 60 0
 14980.0 203.4 -999.25 -999.25 -999.25 -999.25 -999.25 -999.25 -999.25 -999.25 -999.25 0 0 0 40 0 0 0 60 0
 14981.0 201.2 -999.25 -999.25 -999.25 -999.25 -999.25 -999.25 -999.25 -999.25 -999.25 0 0 0 40 0 0 0 60 0
 14982.0 201.2 -999.25 -999.25 -999.25 -999.25 -999.25 -999.25 -999.25 -999.25 -999.25 0 0 0 40 0 0 0 60 0
 14983.0 154.6 -999.25 -999.25 -999.25 -999.25 -999.25 -999.25 -999.25 -999.25 -999.25 0 0 0 40 0 0 0 60 0
 14984.0 153.1 -999.25 -999.25 -999.25 -999.25 -999.25 -999.25 -999.25 -999.25 -999.25 0 0 0 40 0 0 0 60 0
 14985.0 152.3 -999.25 -999.25 -999.25 -999.25 -999.25 -999.25 -999.25 -999.25 -999.25 0 0 0 40 0 0 0 60 0
 14986.0 154.9 -999.25 -999.25 -999.25 -999.25 -999.25 -999.25 -999.25 -999.25 -999.25 0 0 0 40 0 0 0 60 0
 14987.0 190.2 -999.25 -999.25 -999.25 -999.25 -999.25 -999.25 -999.25 -999.25 -999.25 0 0 0 40 0 0 0 60 0
 14988.0 201.2 -999.25 -999.25 -999.25 -999.25 -999.25 -999.25 -999.25 -999.25 -999.25 0 0 0 40 0 0 0 60 0
 14989.0 201.2 -999.25 -999.25 -999.25 -999.25 -999.25 -999.25 -999.25 -999.25 -999.25 0 0 0 40 0 0 0 60 0
 14990.0 204.2 -999.25 -999.25 -999.25 -999.25 -999.25 -999.25 -999.25 -999.25 -999.25 0 0 0 40 0 0 0 60 0
 14991.0 143.7 -999.25 -999.25 -999.25 -999.25 -999.25 -999.25 -999.25 -999.25 -999.25 0 0 0 40 0 0 0 60 0
 14992.0 143.7 -999.25 -999.25 -999.25 -999.25 -999.25 -999.25 -999.25 -999.25 -999.25 0 0 0 40 0 0 0 60 0
 14993.0 97.5 -999.25 -999.25 -999.25 -999.25 -999.25 -999.25 -999.25 -999.25 -999.25 0 0 0 40 0 0 0 60 0
 14994.0 97.5 -999.25 -999.25 -999.25 -999.25 -999.25 -999.25 -999.25 -999.25 -999.25 0 0 0 40 0 0 0 60 0
 14995.0 80.8 -999.25 -999.25 -999.25 -999.25 -999.25 -999.25 -999.25 -999.25 -999.25 0 0 0 40 0 0 0 60 0
 14996.0 97.6 -999.25 -999.25 -999.25 -999.25 -999.25 -999.25 -999.25 -999.25 -999.25 0 0 0 40 0 0 0 60 0
 14997.0 117.6 -999.25 -999.25 -999.25 -999.25 -999.25 -999.25 -999.25 -999.25 -999.25 0 0 0 40 0 0 0 60 0
 14998.0 144.6 -999.25 -999.25 -999.25 -999.25 -999.25 -999.25 -999.25 -999.25 -999.25 0 0 0 40 0 0 0 60 0
 15000.0 186.5 -999.25 -999.25 -999.25 -999.25 -999.25 -999.25 -999.25 -999.25 -999.25 0 0 0 40 0 0 0 60 0
 15001.0 205.1 -999.25 -999.25 -999.25 -999.25 -999.25 -999.25 -999.25 -999.25 -999.25 0 0 0 40 0 0 0 60 0
 15002.0 205.1 -999.25 -999.25 -999.25 -999.25 -999.25 -999.25 -999.25 -999.25 -999.25 0 0 0 40 0 0 0 60 0
 15003.0 205.1 -999.25 -999.25 -999.25 -999.25 -999.25 -999.25 -999.25 -999.25 -999.25 0 0 0 40 0 0 0 60 0
 15007.0 205.8 -999.25 -999.25 -999.25 -999.25 -999.25 -999.25 -999.25 -999.25 -999.25 0 0 0 40 0 0 0 60 0
 15008.0 206.7 -999.25 -999.25 -999.25 -999.25 -999.25 -999.25 -999.25 -999.25 -999.25 0 0 0 40 0 0 0 60 0
 15009.0 208.0 -999.25 -999.25 -999.25 -999.25 -999.25 -999.25 -999.25 -999.25 -999.25 0 0 0 40 0 0 0 60 0
 15010.0 204.4 -999.25 -999.25 -999.25 -999.25 -999.25 -999.25 -999.25 -999.25 -999.25 0 0 0 40 0 0 0 60 0
 15012.0 203.6 -999.25 -999.25 -999.25 -999.25 -999.25 -999.25 -999.25 -999.25 -999.25 0 0 0 40 0 0 0 60 0
 15015.0 39.8 -999.25 -999.25 -999.25 -999.25 -999.25 -999.25 -999.25 -999.25 -999.25 0 0 0 40 0 0 0 60 0
 15017.0 39.9 -999.25 -999.25 -999.25 -999.25 -999.25 -999.25 -999.25 -999.25 -999.25 0 0 0 40 0 0 0 60 0
 15018.0 40.1 -999.25 -999.25 -999.25 -999.25 -999.25 -999.25 -999.25 -999.25 -999.25 0 0 0 40 0 0 0 60 0
 15019.0 205.5 -999.25 -999.25 -999.25 -999.25 -999.25 -999.25 -999.25 -999.25 -999.25 0 0 0 40 0 0 0 60 0
 15021.0 203.1 -999.25 -999.25 -999.25 -999.25 -999.25 -999.25 -999.25 -999.25 -999.25 0 0 0 40 0 0 0 60 0
 15022.0 206.1 -999.25 -999.25 -999.25 -999.25 -999.25 -999.25 -999.25 -999.25 -999.25 0 0 0 40 0 0 0 60 0
 15023.0 197.7 -999.25 -999.25 -999.25 -999.25 -999.25 -999.25 -999.25 -999.25 -999.25 0 0 0 40 0 0 0 60 0
 15024.0 173.4 -999.25 -999.25 -999.25 -999.25 -999.25 -999.25 -999.25 -999.25 -999.25 0 0 0 40 0 0 0 60 0
 15025.0 172.2 -999.25 -999.25 -999.25 -999.25 -999.25 -999.25 -999.25 -999.25 -999.25 0 0 0 40 0 0 0 60 0
 15026.0 171.2 -999.25 -999.25 -999.25 -999.25 -999.25 -999.25 -999.25 -999.25 -999.25 0 0 0 40 0 0 0 60 0
 15027.0 170.7 -999.25 -999.25 -999.25 -999.25 -999.25 -999.25 -999.25 -999.25 -999.25 0 0 0 40 0 0 0 60 0
 15028.0 177.6 -999.25 -999.25 -999.25 -999.25 -999.25 -999.25 -999.25 -999.25 -999.25 0 0 0 40 0 0 0 60 0
 15029.0 203.1 -999.25 -999.25 -999.25 -999.25 -999.25 -999.25 -999.25 -999.25 -999.25 0 0 0 40 0 0 0 60 0
 15030.0 205.1 -999.25 -999.25 -999.25 -999.25 -999.25 -999.25 -999.25 -999.25 -999.25 0 0 0 40 0 0 0 60 0
 15032.0 195.7 -999.25 -999.25 -999.25 -999.25 -999.25 -999.25 -999.25 -999.25 -999.25 0 0 0 40 0 0 0 60 0
 15033.0 195.7 -999.25 -999.25 -999.25 -999.25 -999.25 -999.25 -999.25 -999.25 -999.25 0 0 0 40 0 0 0 60 0
 15035.0 147.0 -999.25 -999.25 -999.25 -999.25 -999.25 -999.25 -999.25 -999.25 -999.25 0 0 0 40 0 0 0 60 0
 15037.0 153.6 -999.25 -999.25 -999.25 -999.25 -999.25 -999.25 -999.25 -999.25 -999.25 0 0 0 40 0 0 0 60 0
 15039.0 188.1 -999.25 -999.25 -999.25 -999.25 -999.25 -999.25 -999.25 -999.25 -999.25 0 0 0 40 0 0 0 60 0
 15040.0 188.1 -999.25 -999.25 -999.25 -999.25 -999.25 -999.25 -999.25 -999.25 -999.25 0 0 0 40 0 0 0 60 0
 15041.0 157.4 -999.25 -999.25 -999.25 -999.25 -999.25 -999.25 -999.25 -999.25 -999.25 0 0 0 40 0 0 0 60 0
 15042.0 156.2 -999.25 -999.25 -999.25 -999.25 -999.25 -999.25 -999.25 -999.25 -999.25 0 0 0 40 0 0 0 60 0
 15043.0 157.8 -999.25 -999.25 -999.25 -999.25 -999.25 -999.25 -999.25 -999.25 -999.25 0 0 0 40 0 0 0 60 0
 15044.0 166.2 -999.25 -999.25 -999.25 -999.25 -999.25 -999.25 -999.25 -999.25 -999.25 0 0 0 40 0 0 0 60 0
