~Version ---------------------------------------------------
VERS.   2.0 : CWLS log ASCII Standard -VERSION 2.0
WRAP.    NO : One line per depth step
DLM . SPACE : Column Data Section Delimiter
~Well ------------------------------------------------------
STRT.F                   0.0 : START DEPTH
STOP.F               15441.0 : STOP DEPTH
STEP.F                   1.0 : STEP
NULL.                -999.25 : NULL VALUE
COMP.                Pioneer : COMPANY
WELL.       MCCLINTIC 12C 3H : WELL
FLD . Spraberry (trend area) : FIELD
LOC .            Midland Co. : LOCATION
STAT.                  Texas : STATE
CTRY.            Midland Co. : COUNTRY
SRVC.    StrataID Technology : SERVICE COMPANY
DATE.    2022-09-16 14:07:04 : DATE
UWI .                    705 : UNIQUE WELL ID
~Curve Information -----------------------------------------
DMEA     .F     : Depth Hole (meas)
ROPA     .F/HR  : Rate of Penetration (avg)
GASA     .%     : Gas (avg)
METH     .PPM   : Methane (C1)
ETH      .PPM   : Ethane (C2)
PRP      .PPM   : Propane (C3)
IBUT     .PPM   : Iso-Butane (IC4)
NBUT     .PPM   : Nor-Butane (NC4)
IPEN     .PPM   : Iso-Pentane (IC5)
NPEN     .PPM   : Nor-Pentane (NC5)
MG1      .API   : Gamma Ray 1 reading
Anhydrite.----  : N/A
Ash      .----  : N/A
Cement   .----  : N/A
Limestone.----  : N/A
NoSample .----  : N/A
Salt     .----  : N/A
Sand     .----  : N/A
Shale    .----  : N/A
ShaleRed .----  : N/A
~Params ----------------------------------------------------
~Other -----------------------------------------------------
StrataID LAS Version 2.0 export file
~ASCII DMEA ROPA GASA METH ETH PRP IBUT NBUT IPEN NPEN MG1 Anhydrite Ash Cement Limestone NoSample Salt Sand Shale ShaleRed 
# ...
 10956.0 100.6 218.0 14022.0 1743.0 1197.0 0.0 74.0 0.0 0.0 65.29 0 0 0 40 0 0 0 60 0
 10957.0 100.6 207.0 13628.0 1694.0 1164.0 0.0 72.0 0.0 0.0 61.56 0 0 0 40 0 0 0 60 0
 10958.0 100.4 179.0 12161.0 1581.0 1057.0 0.0 75.0 0.0 0.0 57.03 0 0 0 40 0 0 0 60 0
 10959.0 100.4 190.0 12549.5 1631.5 1091.0 0.0 77.5 0.0 0.0 57.03 0 0 0 40 0 0 0 60 0
 10960.0 101.3 199.0 13423.0 1745.5 1167.0 0.0 82.5 0.0 0.0 59.96 0 0 0 40 0 0 0 60 0
 10961.0 101.3 212.0 14343.0 1751.0 1088.0 0.0 46.0 0.0 0.0 58.9 0 0 0 40 0 0 0 60 0
 10963.0 102.7 227.0 15521.5 1895.0 1177.5 0.0 50.0 0.0 0.0 57.3 0 0 0 40 0 0 0 60 0
 10964.0 102.7 196.0 13745.0 1588.0 978.0 0.0 35.0 0.0 0.0 55.17 0 0 0 40 0 0 0 60 0
 10965.0 101.5 160.0 10858.5 1254.0 772.5 0.0 27.5 0.0 0.0 52.23 0 0 0 40 0 0 0 60 0
 10966.0 101.3 141.0 9621.0 1111.0 684.0 0.0 25.0 0.0 0.0 55.97 0 0 0 40 0 0 0 60 0
 10967.0 101.3 149.0 9793.5 1216.5 789.0 0.0 38.5 0.0 0.0 56.23 0 0 0 40 0 0 0 60 0
 10968.0 100.7 142.0 9826.0 1220.0 791.0 0.0 38.0 0.0 0.0 56.5 0 0 0 40 0 0 0 60 0
 10969.0 100.7 145.0 9627.0 1196.0 775.0 0.0 38.0 0.0 0.0 58.36 0 0 0 40 0 0 0 60 0
 10970.0 100.7 193.0 12017.0 1493.0 968.0 0.0 47.0 0.0 0.0 54.37 0 0 0 40 0 0 0 60 0
 10971.0 100.7 -999.25 -999.25 -999.25 -999.25 -999.25 -999.25 -999.25 -999.25 55.17 0 0 0 40 0 0 0 60 0
 10972.0 101.0 -999.25 -999.25 -999.25 -999.25 -999.25 -999.25 -999.25 -999.25 55.97 0 0 0 40 0 0 0 60 0
 10973.0 100.6 -999.25 -999.25 -999.25 -999.25 -999.25 -999.25 -999.25 -999.25 53.83 0 0 0 40 0 0 0 60 0
 10974.0 100.6 93.0 7082.5 612.5 496.5 0.0 120.5 0.0 0.0 52.77 0 0 0 40 0 0 0 60 0
 10975.0 100.6 183.0 15536.0 631.0 1233.0 0.0 120.5 0.0 0.0 51.7 0 0 0 40 0 0 0 60 0
 10976.0 102.0 218.0 17279.0 702.0 1371.0 0.0 120.5 0.0 0.0 52.77 0 0 0 40 0 0 0 60 0
 10977.0 101.7 233.0 17658.0 717.0 1402.0 0.0 120.5 0.0 0.0 55.97 0 0 0 40 0 0 0 60 0
 10978.0 101.7 195.0 17279.0 702.0 1371.0 0.0 120.5 0.0 0.0 59.16 0 0 0 40 0 0 0 60 0
 10979.0 101.7 173.0 11808.5 1412.0 1015.0 0.0 116.5 0.0 0.0 57.83 0 0 0 40 0 0 0 60 0
 10980.0 101.5 193.0 12622.0 1510.0 1085.0 0.0 125.0 0.0 0.0 58.63 0 0 0 40 0 0 0 60 0
 10981.0 100.4 193.0 12752.0 1525.0 1096.0 0.0 126.0 0.0 0.0 59.96 0 0 0 40 0 0 0 60 0
 10982.0 101.1 206.0 14751.5 1733.0 1105.5 0.0 78.0 0.0 0.0 59.96 0 0 0 40 0 0 0 60 0
 10983.0 101.1 216.0 15190.0 1785.0 1138.0 0.0 80.0 0.0 0.0 59.96 0 0 0 40 0 0 0 60 0
 10984.0 100.8 233.0 15350.0 1933.0 1222.0 0.0 103.0 0.0 0.0 67.96 0 0 0 40 0 0 0 60 0
 10985.0 100.8 204.0 13834.0 1742.0 1101.0 0.0 93.0 0.0 0.0 67.82 0 0 0 40 0 0 0 60 0
 10986.0 101.1 186.0 12714.0 1601.0 1012.0 0.0 86.0 0.0 0.0 67.69 0 0 0 40 0 0 0 60 0
 10987.0 101.5 201.0 13241.0 1667.0 1054.0 0.0 89.0 0.0 0.0 67.56 0 0 0 40 0 0 0 60 0
 10988.0 101.3 206.0 13406.0 1640.0 995.0 0.0 81.0 0.0 0.0 67.42 0 0 0 40 0 0 0 60 0
 10989.0 101.7 213.0 14210.0 1739.0 1055.0 0.0 86.0 0.0 0.0 67.29 0 0 0 40 0 0 0 60 0
 10990.0 101.8 223.0 14813.0 1813.0 1100.0 0.0 89.5 0.0 0.0 67.16 0 0 0 40 0 0 0 60 0
 10991.0 100.7 225.0 15639.0 1884.0 1118.0 0.0 58.0 0.0 0.0 64.49 0 0 0 40 0 0 0 60 0
 10992.0 100.7 188.0 12851.0 1548.0 919.0 0.0 48.0 0.0 0.0 61.83 0 0 0 40 0 0 0 60 0
 10993.0 100.5 181.0 13123.0 1581.0 938.0 0.0 49.0 0.0 0.0 55.97 0 0 0 40 0 0 0 60 0
 10994.0 100.2 194.0 13803.0 1663.0 987.0 0.0 51.0 0.0 0.0 55.17 0 0 0 40 0 0 0 60 0
 10995.0 100.2 212.0 14630.0 1784.0 1048.0 0.0 63.0 0.0 0.0 54.37 0 0 0 40 0 0 0 60 0
 10996.0 100.2 231.0 15578.0 1900.0 1116.0 0.0 67.0 0.0 0.0 67.42 0 0 0 40 0 0 0 60 0
 10997.0 100.4 242.0 17373.0 2119.0 1244.5 0.0 75.0 0.0 0.0 64.63 0 0 0 40 0 0 0 60 0
 10998.0 100.4 237.0 16454.0 2125.0 1276.0 0.0 116.0 0.0 0.0 61.83 0 0 0 40 0 0 0 60 0
 10999.0 100.4 210.0 14611.0 1887.0 1133.0 0.0 103.0 0.0 0.0 66.63 0 0 0 40 0 0 0 60 0
 11001.0 101.1 233.0 15541.0 2027.0 1134.0 0.0 75.0 0.0 0.0 69.02 0 0 0 40 0 0 0 60 0
 11002.0 101.1 247.0 16208.0 2114.0 1182.0 0.0 78.0 0.0 0.0 68.89 0 0 0 40 0 0 0 60 0
 11003.0 101.1 280.0 19610.0 2557.5 1430.5 0.0 94.5 0.0 0.0 68.76 0 0 0 40 0 0 0 60 0
 11004.0 102.4 289.0 20197.0 2611.0 1441.0 0.0 113.0 0.0 0.0 67.96 0 0 0 40 0 0 0 60 0
 11005.0 101.9 270.0 18057.0 2334.0 1288.0 0.0 101.0 0.0 0.0 66.49 0 0 0 40 0 0 0 60 0
 11006.0 101.6 220.0 15850.0 2049.0 1131.0 0.0 89.0 0.0 0.0 65.03 0 0 0 40 0 0 0 60 0
 11007.0 101.4 236.0 15883.5 2053.5 1133.5 0.0 89.0 0.0 0.0 57.03 0 0 0 40 0 0 0 60 0
 11008.0 104.0 230.0 15835.0 2161.0 1151.0 0.0 96.0 0.0 0.0 60.9 0 0 0 40 0 0 0 60 0
 11009.0 111.0 250.0 16495.0 2251.0 1199.0 0.0 100.0 0.0 0.0 64.76 0 0 0 40 0 0 0 60 0
 11010.0 111.0 257.0 16956.0 2314.0 1232.0 0.0 103.0 0.0 0.0 65.03 0 0 0 40 0 0 0 60 0
 11011.0 121.1 252.0 17286.0 2359.0 1256.0 0.0 105.0 0.0 0.0 64.49 0 0 0 40 0 0 0 60 0
 11012.0 146.0 255.0 18010.0 2254.0 1226.0 0.0 75.0 0.0 0.0 66.63 0 0 0 40 0 0 0 60 0
 11013.0 156.4 254.0 17942.0 2245.0 1222.0 0.0 74.0 0.0 0.0 66.36 0 0 0 40 0 0 0 60 0
 11016.0 157.6 210.0 15088.0 1887.5 1027.5 0.0 62.5 0.0 0.0 67.96 0 0 0 40 0 0 0 60 0
 11017.0 158.2 240.0 15682.0 2058.0 1130.0 0.0 102.0 0.0 0.0 66.89 0 0 0 40 0 0 0 60 0
 11018.0 159.4 240.0 16811.0 2206.0 1211.0 0.0 110.0 0.0 0.0 65.29 0 0 0 40 0 0 0 60 0
 11021.0 160.5 291.0 19137.5 2511.0 1379.0 0.0 124.5 0.0 0.0 64.49 0 0 0 40 0 0 0 60 0
 11022.0 161.1 291.0 20918.5 2566.0 1357.5 0.0 93.0 0.0 0.0 71.96 0 0 0 40 0 0 0 60 0
 11023.0 161.5 292.0 20918.5 2566.0 1357.5 0.0 93.0 0.0 0.0 74.89 0 0 0 40 0 0 0 60 0
 11025.0 159.2 236.0 17214.5 2111.5 1117.5 0.0 76.5 0.0 0.0 70.76 0 0 0 40 0 0 0 60 0
 11026.0 157.0 238.0 17317.5 2124.5 1123.5 0.0 76.5 0.0 0.0 69.82 0 0 0 40 0 0 0 60 0
 11027.0 154.9 -999.25 -999.25 -999.25 -999.25 -999.25 -999.25 -999.25 -999.25 67.82 0 0 0 40 0 0 0 60 0
 11028.0 152.3 -999.25 -999.25 -999.25 -999.25 -999.25 -999.25 -999.25 -999.25 65.83 0 0 0 40 0 0 0 60 0
 11029.0 152.3 -999.25 -999.25 -999.25 -999.25 -999.25 -999.25 -999.25 -999.25 72.49 0 0 0 40 0 0 0 60 0
 11030.0 31.1 -999.25 -999.25 -999.25 -999.25 -999.25 -999.25 -999.25 -999.25 66.63 0 0 0 40 0 0 0 60 0
 11031.0 31.2 -999.25 -999.25 -999.25 -999.25 -999.25 -999.25 -999.25 -999.25 65.56 0 0 0 40 0 0 0 60 0
 11032.0 31.2 -999.25 -999.25 -999.25 -999.25 -999.25 -999.25 -999.25 -999.25 64.49 0 0 0 40 0 0 0 60 0
 11033.0 31.2 -999.25 -999.25 -999.25 -999.25 -999.25 -999.25 -999.25 -999.25 66.63 0 0 0 40 0 0 0 60 0
 11034.0 155.8 -999.25 -999.25 -999.25 -999.25 -999.25 -999.25 -999.25 -999.25 71.96 0 0 0 40 0 0 0 60 0
 11035.0 154.6 -999.25 -999.25 -999.25 -999.25 -999.25 -999.25 -999.25 -999.25 65.83 0 0 0 40 0 0 0 60 0
 11036.0 153.4 -999.25 -999.25 -999.25 -999.25 -999.25 -999.25 -999.25 -999.25 69.29 0 0 0 40 0 0 0 60 0
 11040.0 154.4 -999.25 -999.25 -999.25 -999.25 -999.25 -999.25 -999.25 -999.25 74.62 0 0 0 40 0 0 0 60 0
 11041.0 156.2 -999.25 -999.25 -999.25 -999.25 -999.25 -999.25 -999.25 -999.25 71.69 0 0 0 40 0 0 0 60 0
 11042.0 157.6 -999.25 -999.25 -999.25 -999.25 -999.25 -999.25 -999.25 -999.25 72.22 0 0 0 40 0 0 0 60 0
 11043.0 156.1 -999.25 -999.25 -999.25 -999.25 -999.25 -999.25 -999.25 -999.25 72.75 0 0 0 40 0 0 0 60 0
 11044.0 154.9 -999.25 -999.25 -999.25 -999.25 -999.25 -999.25 -999.25 -999.25 70.62 0 0 0 40 0 0 0 60 0
 11045.0 153.4 -999.25 -999.25 -999.25 -999.25 -999.25 -999.25 -999.25 -999.25 76.22 0 0 0 40 0 0 0 60 0
 11046.0 153.4 -999.25 -999.25 -999.25 -999.25 -999.25 -999.25 -999.25 -999.25 73.15 0 0 0 40 0 0 0 60 0
 11047.0 151.8 -999.25 -999.25 -999.25 -999.25 -999.25 -999.25 -999.25 -999.25 70.09 0 0 0 40 0 0 0 60 0
 11048.0 152.7 -999.25 -999.25 -999.25 -999.25 -999.25 -999.25 -999.25 -999.25 70.89 0 0 0 40 0 0 0 60 0
 11049.0 153.6 -999.25 -999.25 -999.25 -999.25 -999.25 -999.25 -999.25 -999.25 71.69 0 0 0 40 0 0 0 60 0
 11050.0 154.5 262.0 18313.0 2400.0 1301.0 0.0 95.0 0.0 0.0 68.89 0 0 0 40 0 0 0 60 0
 11051.0 154.9 271.0 17246.0 2560.0 1373.0 0.0 152.0 0.0 0.0 66.09 0 0 0 40 0 0 0 60 0
 11052.0 153.4 276.0 17564.0 2607.0 1399.0 0.0 155.0 0.0 0.0 65.29 0 0 0 40 0 0 0 60 0
 11054.0 151.8 317.0 19664.0 2919.0 1566.0 0.0 173.0 0.0 0.0 65.03 0 0 0 40 0 0 0 60 0
 11055.0 152.3 322.0 21128.0 3137.0 1683.0 0.0 186.0 0.0 0.0 64.49 0 0 0 40 0 0 0 60 0
